{
   "type": "FeatureCollection",
   "features": [
  {
    "type": "Feature",
    "geometry": {
       "type": "Point",
       "coordinates":  [ 54.65,24.43,27 ]
    },
    "properties": {
    "name":"ABU DHABI",
    "source":"IWEC Data",
    "wmo":"412170"
    }
  },
  {
    "type": "Feature",
    "geometry": {
       "type": "Point",
       "coordinates":  [ -58.53,-34.82,20 ]
    },
    "properties": {
    "name":"BUENOS AIRES",
    "source":"IWEC Data",
    "wmo":"875760"
    }
  },
  {
    "type": "Feature",
    "geometry": {
       "type": "Point",
       "coordinates":  [ 149.18,-35.3,577 ]
    },
    "properties": {
    "name":"CANBERRA",
    "source":"IWEC Data",
    "wmo":"949260"
    }
  },
  {
    "type": "Feature",
    "geometry": {
       "type": "Point",
       "coordinates":  [ 149.2,-35.3,580 ]
    },
    "properties": {
    "name":"Canberra Airport",
    "source":"RMY",
    "wmo":"949260"
    }
  },
  {
    "type": "Feature",
    "geometry": {
       "type": "Point",
       "coordinates":  [ 145.83,-31.48,264 ]
    },
    "properties": {
    "name":"Cobar",
    "source":"RMY",
    "wmo":"947110"
    }
  },
  {
    "type": "Feature",
    "geometry": {
       "type": "Point",
       "coordinates":  [ 153.12,-30.32,6 ]
    },
    "properties": {
    "name":"Coffs Harbour",
    "source":"RMY",
    "wmo":"947910"
    }
  },
  {
    "type": "Feature",
    "geometry": {
       "type": "Point",
       "coordinates":  [ 148.57,-32.22,285 ]
    },
    "properties": {
    "name":"Dubbo Airport",
    "source":"RMY",
    "wmo":"957190"
    }
  },
  {
    "type": "Feature",
    "geometry": {
       "type": "Point",
       "coordinates":  [ 149.83,-29.48,218 ]
    },
    "properties": {
    "name":"Moree Aero",
    "source":"RMY",
    "wmo":"955270"
    }
  },
  {
    "type": "Feature",
    "geometry": {
       "type": "Point",
       "coordinates":  [ 150.53,-34.95,105 ]
    },
    "properties": {
    "name":"Nowra RAN Air Station",
    "source":"RMY",
    "wmo":"947500"
    }
  },
  {
    "type": "Feature",
    "geometry": {
       "type": "Point",
       "coordinates":  [ 150.78,-33.6,20 ]
    },
    "properties": {
    "name":"Richmond RAAF",
    "source":"RMY",
    "wmo":"957530"
    }
  },
  {
    "type": "Feature",
    "geometry": {
       "type": "Point",
       "coordinates":  [ 151.18,-33.95,3 ]
    },
    "properties": {
    "name":"SYDNEY",
    "source":"IWEC Data",
    "wmo":"947670"
    }
  },
  {
    "type": "Feature",
    "geometry": {
       "type": "Point",
       "coordinates":  [ 151.2,-33.85,40 ]
    },
    "properties": {
    "name":"Sydney",
    "source":"RMY",
    "wmo":"947680"
    }
  },
  {
    "type": "Feature",
    "geometry": {
       "type": "Point",
       "coordinates":  [ 147.45,-35.17,213 ]
    },
    "properties": {
    "name":"Wagga Wagga",
    "source":"RMY",
    "wmo":"949100"
    }
  },
  {
    "type": "Feature",
    "geometry": {
       "type": "Point",
       "coordinates":  [ 151.83,-32.8,8 ]
    },
    "properties": {
    "name":"Williamtown RAAF",
    "source":"RMY",
    "wmo":"947760"
    }
  },
  {
    "type": "Feature",
    "geometry": {
       "type": "Point",
       "coordinates":  [ 133.88,-23.8,547 ]
    },
    "properties": {
    "name":"Alice Springs Airport",
    "source":"RMY",
    "wmo":"943260"
    }
  },
  {
    "type": "Feature",
    "geometry": {
       "type": "Point",
       "coordinates":  [ 130.87,-12.4,30 ]
    },
    "properties": {
    "name":"DARWIN",
    "source":"IWEC Data",
    "wmo":"941200"
    }
  },
  {
    "type": "Feature",
    "geometry": {
       "type": "Point",
       "coordinates":  [ 130.88,-12.42,35 ]
    },
    "properties": {
    "name":"Darwin Airport",
    "source":"RMY",
    "wmo":"941200"
    }
  },
  {
    "type": "Feature",
    "geometry": {
       "type": "Point",
       "coordinates":  [ 134.18,-19.63,377 ]
    },
    "properties": {
    "name":"Tennant Creek",
    "source":"RMY",
    "wmo":"942380"
    }
  },
  {
    "type": "Feature",
    "geometry": {
       "type": "Point",
       "coordinates":  [ 152.72,-27.63,31 ]
    },
    "properties": {
    "name":"Amberly",
    "source":"RMY",
    "wmo":"945680"
    }
  },
  {
    "type": "Feature",
    "geometry": {
       "type": "Point",
       "coordinates":  [ 153.1,-27.38,5 ]
    },
    "properties": {
    "name":"BRISBANE",
    "source":"IWEC Data",
    "wmo":"945780"
    }
  },
  {
    "type": "Feature",
    "geometry": {
       "type": "Point",
       "coordinates":  [ 146.27,-26.42,303 ]
    },
    "properties": {
    "name":"Charleville Aero",
    "source":"RMY",
    "wmo":"945100"
    }
  },
  {
    "type": "Feature",
    "geometry": {
       "type": "Point",
       "coordinates":  [ 151.22,-23.87,17 ]
    },
    "properties": {
    "name":"Gladstone Airport",
    "source":"RMY",
    "wmo":"943810"
    }
  },
  {
    "type": "Feature",
    "geometry": {
       "type": "Point",
       "coordinates":  [ 144.28,-23.43,192 ]
    },
    "properties": {
    "name":"Longreach Aero",
    "source":"RMY",
    "wmo":"943460"
    }
  },
  {
    "type": "Feature",
    "geometry": {
       "type": "Point",
       "coordinates":  [ 149.22,-21.12,36 ]
    },
    "properties": {
    "name":"Mackay",
    "source":"RMY",
    "wmo":"943670"
    }
  },
  {
    "type": "Feature",
    "geometry": {
       "type": "Point",
       "coordinates":  [ 139.48,-20.68,341 ]
    },
    "properties": {
    "name":"Mount Isa Aero",
    "source":"RMY",
    "wmo":"943320"
    }
  },
  {
    "type": "Feature",
    "geometry": {
       "type": "Point",
       "coordinates":  [ 151.73,-27.42,407 ]
    },
    "properties": {
    "name":"Oakey Aero",
    "source":"RMY",
    "wmo":"945520"
    }
  },
  {
    "type": "Feature",
    "geometry": {
       "type": "Point",
       "coordinates":  [ 150.48,-23.38,14 ]
    },
    "properties": {
    "name":"Rockhampton Aero",
    "source":"RMY",
    "wmo":"943740"
    }
  },
  {
    "type": "Feature",
    "geometry": {
       "type": "Point",
       "coordinates":  [ 146.77,-19.25,9 ]
    },
    "properties": {
    "name":"Townsville Aero",
    "source":"RMY",
    "wmo":"942940"
    }
  },
  {
    "type": "Feature",
    "geometry": {
       "type": "Point",
       "coordinates":  [ 141.92,-12.68,19 ]
    },
    "properties": {
    "name":"Weipa Aero",
    "source":"RMY",
    "wmo":"941700"
    }
  },
  {
    "type": "Feature",
    "geometry": {
       "type": "Point",
       "coordinates":  [ 149.97,-16.3,9 ]
    },
    "properties": {
    "name":"Willis Island",
    "source":"RMY",
    "wmo":"942990"
    }
  },
  {
    "type": "Feature",
    "geometry": {
       "type": "Point",
       "coordinates":  [ 138.52,-34.93,4 ]
    },
    "properties": {
    "name":"ADELAIDE",
    "source":"IWEC Data",
    "wmo":"946720"
    }
  },
  {
    "type": "Feature",
    "geometry": {
       "type": "Point",
       "coordinates":  [ 133.7,-32.13,16 ]
    },
    "properties": {
    "name":"Ceduna",
    "source":"RMY",
    "wmo":"946530"
    }
  },
  {
    "type": "Feature",
    "geometry": {
       "type": "Point",
       "coordinates":  [ 140.78,-37.73,69 ]
    },
    "properties": {
    "name":"Mount Gambier Aero",
    "source":"RMY",
    "wmo":"948210"
    }
  },
  {
    "type": "Feature",
    "geometry": {
       "type": "Point",
       "coordinates":  [ 136.82,-31.15,168 ]
    },
    "properties": {
    "name":"Woomera Aerodrome",
    "source":"RMY",
    "wmo":"946590"
    }
  },
  {
    "type": "Feature",
    "geometry": {
       "type": "Point",
       "coordinates":  [ 147.2,-41.53,178 ]
    },
    "properties": {
    "name":"Launceston Airport",
    "source":"RMY",
    "wmo":"949680"
    }
  },
  {
    "type": "Feature",
    "geometry": {
       "type": "Point",
       "coordinates":  [ 143.78,-37.52,436 ]
    },
    "properties": {
    "name":"Ballarat Aerodrome",
    "source":"RMY",
    "wmo":"948520"
    }
  },
  {
    "type": "Feature",
    "geometry": {
       "type": "Point",
       "coordinates":  [ 143.52,-38.85,83 ]
    },
    "properties": {
    "name":"Cape Otway Lighthouse",
    "source":"RMY",
    "wmo":"948420"
    }
  },
  {
    "type": "Feature",
    "geometry": {
       "type": "Point",
       "coordinates":  [ 147.13,-38.1,8 ]
    },
    "properties": {
    "name":"East Sale Airport",
    "source":"RMY",
    "wmo":"949070"
    }
  },
  {
    "type": "Feature",
    "geometry": {
       "type": "Point",
       "coordinates":  [ 144.83,-37.67,141 ]
    },
    "properties": {
    "name":"MELBOURNE",
    "source":"IWEC Data",
    "wmo":"948660"
    }
  },
  {
    "type": "Feature",
    "geometry": {
       "type": "Point",
       "coordinates":  [ 144.97,-37.82,32 ]
    },
    "properties": {
    "name":"Melbourne",
    "source":"RMY",
    "wmo":"948680"
    }
  },
  {
    "type": "Feature",
    "geometry": {
       "type": "Point",
       "coordinates":  [ 142.08,-34.23,53 ]
    },
    "properties": {
    "name":"Mildura Airport",
    "source":"RMY",
    "wmo":"946930"
    }
  },
  {
    "type": "Feature",
    "geometry": {
       "type": "Point",
       "coordinates":  [ 145.1,-37.98,13 ]
    },
    "properties": {
    "name":"Moorabbin Airport",
    "source":"RMY",
    "wmo":"948700"
    }
  },
  {
    "type": "Feature",
    "geometry": {
       "type": "Point",
       "coordinates":  [ 117.8,-34.93,69 ]
    },
    "properties": {
    "name":"Albany Airport",
    "source":"RMY",
    "wmo":"948020"
    }
  },
  {
    "type": "Feature",
    "geometry": {
       "type": "Point",
       "coordinates":  [ 122.23,-17.95,9 ]
    },
    "properties": {
    "name":"Broome Airport",
    "source":"RMY",
    "wmo":"942030"
    }
  },
  {
    "type": "Feature",
    "geometry": {
       "type": "Point",
       "coordinates":  [ 113.67,-24.88,8 ]
    },
    "properties": {
    "name":"Carnarvon Airport",
    "source":"RMY",
    "wmo":"943000"
    }
  },
  {
    "type": "Feature",
    "geometry": {
       "type": "Point",
       "coordinates":  [ 121.88,-33.83,27 ]
    },
    "properties": {
    "name":"Esperance",
    "source":"RMY",
    "wmo":"946380"
    }
  },
  {
    "type": "Feature",
    "geometry": {
       "type": "Point",
       "coordinates":  [ 128.12,-30.83,160 ]
    },
    "properties": {
    "name":"Forrest",
    "source":"RMY",
    "wmo":"956460"
    }
  },
  {
    "type": "Feature",
    "geometry": {
       "type": "Point",
       "coordinates":  [ 114.7,-28.8,35 ]
    },
    "properties": {
    "name":"Geraldton Airport",
    "source":"RMY",
    "wmo":"944030"
    }
  },
  {
    "type": "Feature",
    "geometry": {
       "type": "Point",
       "coordinates":  [ 127.67,-18.23,424 ]
    },
    "properties": {
    "name":"Halls Creek Airport",
    "source":"RMY",
    "wmo":"942120"
    }
  },
  {
    "type": "Feature",
    "geometry": {
       "type": "Point",
       "coordinates":  [ 114.08,-22.23,6 ]
    },
    "properties": {
    "name":"LEARMONTH",
    "source":"IWEC Data",
    "wmo":"943020"
    }
  },
  {
    "type": "Feature",
    "geometry": {
       "type": "Point",
       "coordinates":  [ 114.08,-22.23,5 ]
    },
    "properties": {
    "name":"Learmonth Airport",
    "source":"RMY",
    "wmo":"943020"
    }
  },
  {
    "type": "Feature",
    "geometry": {
       "type": "Point",
       "coordinates":  [ 115.72,-32.52,4 ]
    },
    "properties": {
    "name":"Mandurah",
    "source":"RMY",
    "wmo":"946050"
    }
  },
  {
    "type": "Feature",
    "geometry": {
       "type": "Point",
       "coordinates":  [ 118.55,-26.62,519 ]
    },
    "properties": {
    "name":"Meekatharra Airport",
    "source":"RMY",
    "wmo":"944300"
    }
  },
  {
    "type": "Feature",
    "geometry": {
       "type": "Point",
       "coordinates":  [ 115.95,-31.93,29 ]
    },
    "properties": {
    "name":"PERTH",
    "source":"IWEC Data",
    "wmo":"946100"
    }
  },
  {
    "type": "Feature",
    "geometry": {
       "type": "Point",
       "coordinates":  [ 115.97,-31.93,20 ]
    },
    "properties": {
    "name":"Perth Airport",
    "source":"RMY",
    "wmo":"946100"
    }
  },
  {
    "type": "Feature",
    "geometry": {
       "type": "Point",
       "coordinates":  [ 119.1,-20.23,8 ]
    },
    "properties": {
    "name":"PORT HEDLAND",
    "source":"IWEC Data",
    "wmo":"943120"
    }
  },
  {
    "type": "Feature",
    "geometry": {
       "type": "Point",
       "coordinates":  [ 118.63,-20.37,9 ]
    },
    "properties": {
    "name":"Port Hedland Airport",
    "source":"RMY",
    "wmo":"943120"
    }
  },
  {
    "type": "Feature",
    "geometry": {
       "type": "Point",
       "coordinates":  [ 115.77,-31.95,20 ]
    },
    "properties": {
    "name":"Swanbourne",
    "source":"RMY",
    "wmo":"946140"
    }
  },
  {
    "type": "Feature",
    "geometry": {
       "type": "Point",
       "coordinates":  [ 128.12,-15.48,16 ]
    },
    "properties": {
    "name":"Wyndham",
    "source":"RMY",
    "wmo":"942140"
    }
  },
  {
    "type": "Feature",
    "geometry": {
       "type": "Point",
       "coordinates":  [ 15.43,47,347 ]
    },
    "properties": {
    "name":"GRAZ",
    "source":"IWEC Data",
    "wmo":"112400"
    }
  },
  {
    "type": "Feature",
    "geometry": {
       "type": "Point",
       "coordinates":  [ 11.35,47.27,593 ]
    },
    "properties": {
    "name":"INNSBRUCK",
    "source":"IWEC Data",
    "wmo":"111200"
    }
  },
  {
    "type": "Feature",
    "geometry": {
       "type": "Point",
       "coordinates":  [ 14.2,48.23,313 ]
    },
    "properties": {
    "name":"LINZ",
    "source":"IWEC Data",
    "wmo":"110100"
    }
  },
  {
    "type": "Feature",
    "geometry": {
       "type": "Point",
       "coordinates":  [ 13,47.8,450 ]
    },
    "properties": {
    "name":"SALZBURG",
    "source":"IWEC Data",
    "wmo":"111500"
    }
  },
  {
    "type": "Feature",
    "geometry": {
       "type": "Point",
       "coordinates":  [ 16.57,48.12,190 ]
    },
    "properties": {
    "name":"VIENNA_ SCHWECHAT",
    "source":"IWEC Data",
    "wmo":"110360"
    }
  },
  {
    "type": "Feature",
    "geometry": {
       "type": "Point",
       "coordinates":  [ 4.53,50.9,58 ]
    },
    "properties": {
    "name":"BRUSSELS",
    "source":"IWEC Data",
    "wmo":"64510"
    }
  },
  {
    "type": "Feature",
    "geometry": {
       "type": "Point",
       "coordinates":  [ 2.87,51.2,5 ]
    },
    "properties": {
    "name":"OOSTENDE",
    "source":"IWEC Data",
    "wmo":"64070"
    }
  },
  {
    "type": "Feature",
    "geometry": {
       "type": "Point",
       "coordinates":  [ 5.4,50.03,557 ]
    },
    "properties": {
    "name":"SAINT HUBERT",
    "source":"IWEC Data",
    "wmo":"64760"
    }
  },
  {
    "type": "Feature",
    "geometry": {
       "type": "Point",
       "coordinates":  [ 24.75,42.13,185 ]
    },
    "properties": {
    "name":"PLOVDIV",
    "source":"IWEC Data",
    "wmo":"156250"
    }
  },
  {
    "type": "Feature",
    "geometry": {
       "type": "Point",
       "coordinates":  [ 23.38,42.73,595 ]
    },
    "properties": {
    "name":"SOFIA",
    "source":"IWEC Data",
    "wmo":"156140"
    }
  },
  {
    "type": "Feature",
    "geometry": {
       "type": "Point",
       "coordinates":  [ 27.92,43.2,43 ]
    },
    "properties": {
    "name":"VARNA",
    "source":"IWEC Data",
    "wmo":"155520"
    }
  },
  {
    "type": "Feature",
    "geometry": {
       "type": "Point",
       "coordinates":  [ 17.22,44.78,156 ]
    },
    "properties": {
    "name":"BANJA LUKA",
    "source":"IWEC Data",
    "wmo":"132420"
    }
  },
  {
    "type": "Feature",
    "geometry": {
       "type": "Point",
       "coordinates":  [ 27.53,53.87,234 ]
    },
    "properties": {
    "name":"MINSK",
    "source":"IWEC Data",
    "wmo":"268500"
    }
  },
  {
    "type": "Feature",
    "geometry": {
       "type": "Point",
       "coordinates":  [ -88.3,17.53,5 ]
    },
    "properties": {
    "name":"BELIZE_INTL_AIRPORT",
    "source":"SWERA",
    "wmo":"785830"
    }
  },
  {
    "type": "Feature",
    "geometry": {
       "type": "Point",
       "coordinates":  [ -68.18,-16.52,4042 ]
    },
    "properties": {
    "name":"LA PAZ",
    "source":"IWEC Data",
    "wmo":"852010"
    }
  },
  {
    "type": "Feature",
    "geometry": {
       "type": "Point",
       "coordinates":  [ -48.48,-1.38,16 ]
    },
    "properties": {
    "name":"BELEM",
    "source":"IWEC Data",
    "wmo":"821930"
    }
  },
  {
    "type": "Feature",
    "geometry": {
       "type": "Point",
       "coordinates":  [ -60.7,2.83,140 ]
    },
    "properties": {
    "name":"BOA_VISTA_(CIV/MIL)",
    "source":"SWERA",
    "wmo":"820220"
    }
  },
  {
    "type": "Feature",
    "geometry": {
       "type": "Point",
       "coordinates":  [ -47.93,-15.87,1061 ]
    },
    "properties": {
    "name":"BRASILIA",
    "source":"IWEC Data",
    "wmo":"833780"
    }
  },
  {
    "type": "Feature",
    "geometry": {
       "type": "Point",
       "coordinates":  [ -47.93,-15.87,1061 ]
    },
    "properties": {
    "name":"BRASILIA_(CIV/MIL)",
    "source":"SWERA",
    "wmo":"833780"
    }
  },
  {
    "type": "Feature",
    "geometry": {
       "type": "Point",
       "coordinates":  [ -54.67,-20.47,556 ]
    },
    "properties": {
    "name":"CAMPO_GRANDE_INTL",
    "source":"SWERA",
    "wmo":"836120"
    }
  },
  {
    "type": "Feature",
    "geometry": {
       "type": "Point",
       "coordinates":  [ -48.55,-27.67,5 ]
    },
    "properties": {
    "name":"FLORIANOPOLIS_ARPT",
    "source":"SWERA",
    "wmo":"838990"
    }
  },
  {
    "type": "Feature",
    "geometry": {
       "type": "Point",
       "coordinates":  [ -60.02,-3.13,72 ]
    },
    "properties": {
    "name":"MANAUS",
    "source":"SWERA",
    "wmo":"821110"
    }
  },
  {
    "type": "Feature",
    "geometry": {
       "type": "Point",
       "coordinates":  [ -63.92,-8.77,88 ]
    },
    "properties": {
    "name":"PORTO_VELHO(CV/MIL)",
    "source":"SWERA",
    "wmo":"828240"
    }
  },
  {
    "type": "Feature",
    "geometry": {
       "type": "Point",
       "coordinates":  [ -34.88,-8.1,19 ]
    },
    "properties": {
    "name":"RECIFE",
    "source":"IWEC Data",
    "wmo":"828990"
    }
  },
  {
    "type": "Feature",
    "geometry": {
       "type": "Point",
       "coordinates":  [ -38.52,-13.02,51 ]
    },
    "properties": {
    "name":"SALVADOR",
    "source":"SWERA",
    "wmo":"832480"
    }
  },
  {
    "type": "Feature",
    "geometry": {
       "type": "Point",
       "coordinates":  [ -46.65,-23.62,803 ]
    },
    "properties": {
    "name":"SAO PAULO",
    "source":"IWEC Data",
    "wmo":"837800"
    }
  },
  {
    "type": "Feature",
    "geometry": {
       "type": "Point",
       "coordinates":  [ 114.93,4.93,15 ]
    },
    "properties": {
    "name":"BANDAR SERI BEGAWAN",
    "source":"IWEC Data",
    "wmo":"963150"
    }
  },
  {
    "type": "Feature",
    "geometry": {
       "type": "Point",
       "coordinates":  [ -114.02,51.12,1084 ]
    },
    "properties": {
    "name":"Calgary Int'l",
    "source":"WYEC2-B-25110",
    "wmo":"718770"
    }
  },
  {
    "type": "Feature",
    "geometry": {
       "type": "Point",
       "coordinates":  [ -114.1,53.53,723 ]
    },
    "properties": {
    "name":"Edmonton Stony Plain",
    "source":"WYEC2-B-25145",
    "wmo":"711230"
    }
  },
  {
    "type": "Feature",
    "geometry": {
       "type": "Point",
       "coordinates":  [ -111.22,56.65,369 ]
    },
    "properties": {
    "name":"Fort McMurray",
    "source":"WYEC2-B-25105",
    "wmo":"719320"
    }
  },
  {
    "type": "Feature",
    "geometry": {
       "type": "Point",
       "coordinates":  [ -118.88,55.18,669 ]
    },
    "properties": {
    "name":"Grand Prairie",
    "source":"WYEC2-e-94803",
    "wmo":"719400"
    }
  },
  {
    "type": "Feature",
    "geometry": {
       "type": "Point",
       "coordinates":  [ -112.8,49.63,921 ]
    },
    "properties": {
    "name":"Lethbridge",
    "source":"WYEC2-e-71243",
    "wmo":"712430"
    }
  },
  {
    "type": "Feature",
    "geometry": {
       "type": "Point",
       "coordinates":  [ -110.72,50.02,716 ]
    },
    "properties": {
    "name":"Medicine Hat",
    "source":"WYEC2-B-25118",
    "wmo":"718720"
    }
  },
  {
    "type": "Feature",
    "geometry": {
       "type": "Point",
       "coordinates":  [ -122.37,49.03,58 ]
    },
    "properties": {
    "name":"Abbotsford",
    "source":"WYEC2-B-24288",
    "wmo":"711080"
    }
  },
  {
    "type": "Feature",
    "geometry": {
       "type": "Point",
       "coordinates":  [ -124.9,49.72,24 ]
    },
    "properties": {
    "name":"Comox",
    "source":"WYEC2-B-24292",
    "wmo":"718930"
    }
  },
  {
    "type": "Feature",
    "geometry": {
       "type": "Point",
       "coordinates":  [ -115.78,49.6,940 ]
    },
    "properties": {
    "name":"Cranbrook",
    "source":"WYEC2-e-94157",
    "wmo":"718800"
    }
  },
  {
    "type": "Feature",
    "geometry": {
       "type": "Point",
       "coordinates":  [ -120.73,56.23,695 ]
    },
    "properties": {
    "name":"Fort St John",
    "source":"WYEC2-B-25231",
    "wmo":"719430"
    }
  },
  {
    "type": "Feature",
    "geometry": {
       "type": "Point",
       "coordinates":  [ -120.45,50.7,346 ]
    },
    "properties": {
    "name":"Kamloops",
    "source":"WYEC2-B-25220",
    "wmo":"718870"
    }
  },
  {
    "type": "Feature",
    "geometry": {
       "type": "Point",
       "coordinates":  [ -127.37,50.68,22 ]
    },
    "properties": {
    "name":"Port Hardy",
    "source":"WYEC2-B-25223",
    "wmo":"711090"
    }
  },
  {
    "type": "Feature",
    "geometry": {
       "type": "Point",
       "coordinates":  [ -122.68,53.88,691 ]
    },
    "properties": {
    "name":"Prince George",
    "source":"WYEC2-B-25206",
    "wmo":"718960"
    }
  },
  {
    "type": "Feature",
    "geometry": {
       "type": "Point",
       "coordinates":  [ -130.43,54.3,34 ]
    },
    "properties": {
    "name":"Prince Rupert",
    "source":"WYEC2-B-25353",
    "wmo":"718980"
    }
  },
  {
    "type": "Feature",
    "geometry": {
       "type": "Point",
       "coordinates":  [ -131.82,53.25,6 ]
    },
    "properties": {
    "name":"Sandspit",
    "source":"WYEC2-B-25346",
    "wmo":"711010"
    }
  },
  {
    "type": "Feature",
    "geometry": {
       "type": "Point",
       "coordinates":  [ -127.18,54.82,523 ]
    },
    "properties": {
    "name":"Smithers",
    "source":"WYEC2-B-25225",
    "wmo":"719500"
    }
  },
  {
    "type": "Feature",
    "geometry": {
       "type": "Point",
       "coordinates":  [ -119.65,49.57,479 ]
    },
    "properties": {
    "name":"Summerland",
    "source":"WYEC2-B-94152",
    "wmo":"717680"
    }
  },
  {
    "type": "Feature",
    "geometry": {
       "type": "Point",
       "coordinates":  [ -123.17,49.18,2 ]
    },
    "properties": {
    "name":"Vancouver Int'l",
    "source":"WYEC2-B-94238",
    "wmo":"718920"
    }
  },
  {
    "type": "Feature",
    "geometry": {
       "type": "Point",
       "coordinates":  [ -123.43,48.65,19 ]
    },
    "properties": {
    "name":"Victoria Int'l",
    "source":"WYEC2-B-24297",
    "wmo":"717990"
    }
  },
  {
    "type": "Feature",
    "geometry": {
       "type": "Point",
       "coordinates":  [ -99.95,49.92,409 ]
    },
    "properties": {
    "name":"Brandon",
    "source":"WYEC2-e-14997",
    "wmo":"711400"
    }
  },
  {
    "type": "Feature",
    "geometry": {
       "type": "Point",
       "coordinates":  [ -94.07,58.75,29 ]
    },
    "properties": {
    "name":"Churchill",
    "source":"WYEC2-B-15901",
    "wmo":"719130"
    }
  },
  {
    "type": "Feature",
    "geometry": {
       "type": "Point",
       "coordinates":  [ -101.1,53.97,271 ]
    },
    "properties": {
    "name":"The Pas",
    "source":"WYEC2-B-25004",
    "wmo":"718670"
    }
  },
  {
    "type": "Feature",
    "geometry": {
       "type": "Point",
       "coordinates":  [ -97.23,49.9,239 ]
    },
    "properties": {
    "name":"Winnipeg Int'l",
    "source":"WYEC2-B-14996",
    "wmo":"718520"
    }
  },
  {
    "type": "Feature",
    "geometry": {
       "type": "Point",
       "coordinates":  [ -66.53,45.87,20 ]
    },
    "properties": {
    "name":"Fredericton",
    "source":"WYEC2-B-14670",
    "wmo":"717000"
    }
  },
  {
    "type": "Feature",
    "geometry": {
       "type": "Point",
       "coordinates":  [ -65.45,47.02,33 ]
    },
    "properties": {
    "name":"Miramichi",
    "source":"WYEC2-e-71744",
    "wmo":"717440"
    }
  },
  {
    "type": "Feature",
    "geometry": {
       "type": "Point",
       "coordinates":  [ -65.88,45.32,109 ]
    },
    "properties": {
    "name":"Saint John",
    "source":"WYEC2-B-14643",
    "wmo":"716090"
    }
  },
  {
    "type": "Feature",
    "geometry": {
       "type": "Point",
       "coordinates":  [ -54.57,48.95,151 ]
    },
    "properties": {
    "name":"Gander Int'l",
    "source":"WYEC2-B-14509",
    "wmo":"718030"
    }
  },
  {
    "type": "Feature",
    "geometry": {
       "type": "Point",
       "coordinates":  [ -60.37,53.32,49 ]
    },
    "properties": {
    "name":"Goose",
    "source":"WYEC2-B-15601",
    "wmo":"718160"
    }
  },
  {
    "type": "Feature",
    "geometry": {
       "type": "Point",
       "coordinates":  [ -52.73,47.62,140 ]
    },
    "properties": {
    "name":"St John's",
    "source":"WYEC2-B-14521",
    "wmo":"718010"
    }
  },
  {
    "type": "Feature",
    "geometry": {
       "type": "Point",
       "coordinates":  [ -58.55,48.53,26 ]
    },
    "properties": {
    "name":"Stephenville",
    "source":"WYEC2-B-14503",
    "wmo":"718150"
    }
  },
  {
    "type": "Feature",
    "geometry": {
       "type": "Point",
       "coordinates":  [ -64.92,44.98,28 ]
    },
    "properties": {
    "name":"Greenwood",
    "source":"WYEC2-B-14636",
    "wmo":"713970"
    }
  },
  {
    "type": "Feature",
    "geometry": {
       "type": "Point",
       "coordinates":  [ -60.02,43.93,4 ]
    },
    "properties": {
    "name":"Sable Island",
    "source":"WYEC2-B-14642",
    "wmo":"716000"
    }
  },
  {
    "type": "Feature",
    "geometry": {
       "type": "Point",
       "coordinates":  [ -63.5,44.63,51 ]
    },
    "properties": {
    "name":"Shearwater",
    "source":"WYEC2-B-14633",
    "wmo":"716010"
    }
  },
  {
    "type": "Feature",
    "geometry": {
       "type": "Point",
       "coordinates":  [ -60.05,46.17,62 ]
    },
    "properties": {
    "name":"Sydney",
    "source":"WYEC2-B-14646",
    "wmo":"717070"
    }
  },
  {
    "type": "Feature",
    "geometry": {
       "type": "Point",
       "coordinates":  [ -133.48,68.3,68 ]
    },
    "properties": {
    "name":"Inuvik Ua",
    "source":"WYEC2-B-22258",
    "wmo":"719570"
    }
  },
  {
    "type": "Feature",
    "geometry": {
       "type": "Point",
       "coordinates":  [ -114.45,62.47,206 ]
    },
    "properties": {
    "name":"Yellowknife",
    "source":"WYEC2-B-26110",
    "wmo":"719360"
    }
  },
  {
    "type": "Feature",
    "geometry": {
       "type": "Point",
       "coordinates":  [ -94.98,74.72,67 ]
    },
    "properties": {
    "name":"Resolute",
    "source":"WYEC2-B-17901",
    "wmo":"719240"
    }
  },
  {
    "type": "Feature",
    "geometry": {
       "type": "Point",
       "coordinates":  [ -81.15,43.03,278 ]
    },
    "properties": {
    "name":"London",
    "source":"WYEC2-B-94805",
    "wmo":"716230"
    }
  },
  {
    "type": "Feature",
    "geometry": {
       "type": "Point",
       "coordinates":  [ -80.75,43.98,415 ]
    },
    "properties": {
    "name":"Mount Forest",
    "source":"WYEC2-B-94857",
    "wmo":"716310"
    }
  },
  {
    "type": "Feature",
    "geometry": {
       "type": "Point",
       "coordinates":  [ -79.43,46.35,371 ]
    },
    "properties": {
    "name":"North Bay",
    "source":"WYEC2-B-04705",
    "wmo":"717310"
    }
  },
  {
    "type": "Feature",
    "geometry": {
       "type": "Point",
       "coordinates":  [ -75.67,45.32,114 ]
    },
    "properties": {
    "name":"Ottawa Int'l",
    "source":"WYEC2-B-04772",
    "wmo":"716280"
    }
  },
  {
    "type": "Feature",
    "geometry": {
       "type": "Point",
       "coordinates":  [ -84.52,46.48,192 ]
    },
    "properties": {
    "name":"Sault Ste Marie",
    "source":"WYEC2-B-94842",
    "wmo":"712600"
    }
  },
  {
    "type": "Feature",
    "geometry": {
       "type": "Point",
       "coordinates":  [ -89.32,48.37,199 ]
    },
    "properties": {
    "name":"Thunder Bay",
    "source":"WYEC2-B-94804",
    "wmo":"717490"
    }
  },
  {
    "type": "Feature",
    "geometry": {
       "type": "Point",
       "coordinates":  [ -81.37,48.57,295 ]
    },
    "properties": {
    "name":"Timmins",
    "source":"WYEC2-e-94831",
    "wmo":"717390"
    }
  },
  {
    "type": "Feature",
    "geometry": {
       "type": "Point",
       "coordinates":  [ -79.63,43.67,173 ]
    },
    "properties": {
    "name":"Toronto Int'l",
    "source":"WYEC2-B-04714",
    "wmo":"716240"
    }
  },
  {
    "type": "Feature",
    "geometry": {
       "type": "Point",
       "coordinates":  [ -77.53,44.12,86 ]
    },
    "properties": {
    "name":"Trenton",
    "source":"WYEC2-B-04715",
    "wmo":"716210"
    }
  },
  {
    "type": "Feature",
    "geometry": {
       "type": "Point",
       "coordinates":  [ -82.97,42.27,190 ]
    },
    "properties": {
    "name":"Windsor",
    "source":"WYEC2-B-94810",
    "wmo":"715380"
    }
  },
  {
    "type": "Feature",
    "geometry": {
       "type": "Point",
       "coordinates":  [ -63.13,46.28,54 ]
    },
    "properties": {
    "name":"Charlottetown CDA",
    "source":"WYEC2-B-14688",
    "wmo":"717060"
    }
  },
  {
    "type": "Feature",
    "geometry": {
       "type": "Point",
       "coordinates":  [ -71,48.33,159 ]
    },
    "properties": {
    "name":"Bagotville",
    "source":"WYEC2-B-94795",
    "wmo":"717270"
    }
  },
  {
    "type": "Feature",
    "geometry": {
       "type": "Point",
       "coordinates":  [ -68.2,49.13,22 ]
    },
    "properties": {
    "name":"Baie Comeau",
    "source":"WYEC2-B-14627",
    "wmo":"711870"
    }
  },
  {
    "type": "Feature",
    "geometry": {
       "type": "Point",
       "coordinates":  [ -77.77,55.28,12 ]
    },
    "properties": {
    "name":"Kuujjuarapik",
    "source":"WYEC2-B-15701",
    "wmo":"719050"
    }
  },
  {
    "type": "Feature",
    "geometry": {
       "type": "Point",
       "coordinates":  [ -68.42,58.1,37 ]
    },
    "properties": {
    "name":"Kuujuaq",
    "source":"WYEC2-B-15605",
    "wmo":"719060"
    }
  },
  {
    "type": "Feature",
    "geometry": {
       "type": "Point",
       "coordinates":  [ -77.7,53.63,195 ]
    },
    "properties": {
    "name":"La Grande Riviere",
    "source":"WYEC2-B-73715",
    "wmo":"718270"
    }
  },
  {
    "type": "Feature",
    "geometry": {
       "type": "Point",
       "coordinates":  [ -63.28,51.87,561 ]
    },
    "properties": {
    "name":"Lake Eon",
    "source":"WYEC2-B-CAN07",
    "wmo":"714210"
    }
  },
  {
    "type": "Feature",
    "geometry": {
       "type": "Point",
       "coordinates":  [ -68.22,48.6,52 ]
    },
    "properties": {
    "name":"Mont Joli",
    "source":"WYEC2-B-14639",
    "wmo":"717180"
    }
  },
  {
    "type": "Feature",
    "geometry": {
       "type": "Point",
       "coordinates":  [ -73.75,45.47,36 ]
    },
    "properties": {
    "name":"Montreal Int'l",
    "source":"WYEC2-B-94792",
    "wmo":"716270"
    }
  },
  {
    "type": "Feature",
    "geometry": {
       "type": "Point",
       "coordinates":  [ -71.38,46.8,73 ]
    },
    "properties": {
    "name":"Quebec City",
    "source":"WYEC2-B-04708",
    "wmo":"717080"
    }
  },
  {
    "type": "Feature",
    "geometry": {
       "type": "Point",
       "coordinates":  [ -69.55,47.8,148 ]
    },
    "properties": {
    "name":"Riviere Du Loup",
    "source":"WYEC2-B-CAN12",
    "wmo":"717150"
    }
  },
  {
    "type": "Feature",
    "geometry": {
       "type": "Point",
       "coordinates":  [ -72.27,48.52,179 ]
    },
    "properties": {
    "name":"Roberval",
    "source":"WYEC2-B-04752",
    "wmo":"717280"
    }
  },
  {
    "type": "Feature",
    "geometry": {
       "type": "Point",
       "coordinates":  [ -66.82,54.8,521 ]
    },
    "properties": {
    "name":"Schefferville",
    "source":"WYEC2-B-15619",
    "wmo":"718280"
    }
  },
  {
    "type": "Feature",
    "geometry": {
       "type": "Point",
       "coordinates":  [ -71.68,45.43,241 ]
    },
    "properties": {
    "name":"Sherbrooke",
    "source":"WYEC2-B-04785",
    "wmo":"716100"
    }
  },
  {
    "type": "Feature",
    "geometry": {
       "type": "Point",
       "coordinates":  [ -73.42,45.52,27 ]
    },
    "properties": {
    "name":"St Hubert",
    "source":"WYEC2-B-04712",
    "wmo":"713710"
    }
  },
  {
    "type": "Feature",
    "geometry": {
       "type": "Point",
       "coordinates":  [ -74.28,46.05,395 ]
    },
    "properties": {
    "name":"Ste Agathe Des Monts",
    "source":"WYEC2-B-04790",
    "wmo":"717200"
    }
  },
  {
    "type": "Feature",
    "geometry": {
       "type": "Point",
       "coordinates":  [ -77.78,48.07,337 ]
    },
    "properties": {
    "name":"Val d'Or",
    "source":"WYEC2-B-04730",
    "wmo":"717250"
    }
  },
  {
    "type": "Feature",
    "geometry": {
       "type": "Point",
       "coordinates":  [ -102.97,49.22,581 ]
    },
    "properties": {
    "name":"Estevan",
    "source":"WYEC2-B-24092",
    "wmo":"718620"
    }
  },
  {
    "type": "Feature",
    "geometry": {
       "type": "Point",
       "coordinates":  [ -108.25,52.77,548 ]
    },
    "properties": {
    "name":"North Battleford",
    "source":"WYEC2-B-25012",
    "wmo":"718760"
    }
  },
  {
    "type": "Feature",
    "geometry": {
       "type": "Point",
       "coordinates":  [ -104.67,50.43,577 ]
    },
    "properties": {
    "name":"Regina",
    "source":"WYEC2-B-25005",
    "wmo":"718630"
    }
  },
  {
    "type": "Feature",
    "geometry": {
       "type": "Point",
       "coordinates":  [ -106.68,52.17,504 ]
    },
    "properties": {
    "name":"Saskatoon",
    "source":"WYEC2-B-25015",
    "wmo":"718660"
    }
  },
  {
    "type": "Feature",
    "geometry": {
       "type": "Point",
       "coordinates":  [ -107.68,50.28,818 ]
    },
    "properties": {
    "name":"Swift Current",
    "source":"WYEC2-B-25028",
    "wmo":"714460"
    }
  },
  {
    "type": "Feature",
    "geometry": {
       "type": "Point",
       "coordinates":  [ -135.07,60.72,703 ]
    },
    "properties": {
    "name":"Whitehorse",
    "source":"WYEC2-B-26316",
    "wmo":"719640"
    }
  },
  {
    "type": "Feature",
    "geometry": {
       "type": "Point",
       "coordinates":  [ 6.13,46.25,416 ]
    },
    "properties": {
    "name":"GENEVA",
    "source":"IWEC Data",
    "wmo":"67000"
    }
  },
  {
    "type": "Feature",
    "geometry": {
       "type": "Point",
       "coordinates":  [ -70.43,-23.43,120 ]
    },
    "properties": {
    "name":"ANTOFAGASTA",
    "source":"IWEC Data",
    "wmo":"854420"
    }
  },
  {
    "type": "Feature",
    "geometry": {
       "type": "Point",
       "coordinates":  [ -73.05,-36.77,16 ]
    },
    "properties": {
    "name":"CONCEPCION",
    "source":"IWEC Data",
    "wmo":"856820"
    }
  },
  {
    "type": "Feature",
    "geometry": {
       "type": "Point",
       "coordinates":  [ -70.85,-53,37 ]
    },
    "properties": {
    "name":"PUNTA ARENAS",
    "source":"IWEC Data",
    "wmo":"859340"
    }
  },
  {
    "type": "Feature",
    "geometry": {
       "type": "Point",
       "coordinates":  [ -70.78,-33.38,476 ]
    },
    "properties": {
    "name":"SANTIAGO",
    "source":"IWEC Data",
    "wmo":"855740"
    }
  },
  {
    "type": "Feature",
    "geometry": {
       "type": "Point",
       "coordinates":  [ 117.05,30.53,19.8 ]
    },
    "properties": {
    "name":"Anqing",
    "source":"CSWD",
    "wmo":"584240"
    }
  },
  {
    "type": "Feature",
    "geometry": {
       "type": "Point",
       "coordinates":  [ 117.38,32.95,18.7 ]
    },
    "properties": {
    "name":"Bengbu",
    "source":"CSWD",
    "wmo":"582210"
    }
  },
  {
    "type": "Feature",
    "geometry": {
       "type": "Point",
       "coordinates":  [ 115.77,33.87,37.7 ]
    },
    "properties": {
    "name":"Boxian",
    "source":"CSWD",
    "wmo":"581020"
    }
  },
  {
    "type": "Feature",
    "geometry": {
       "type": "Point",
       "coordinates":  [ 117.23,31.87,26.8 ]
    },
    "properties": {
    "name":"Hefei",
    "source":"CSWD",
    "wmo":"583210"
    }
  },
  {
    "type": "Feature",
    "geometry": {
       "type": "Point",
       "coordinates":  [ 117.23,31.87,36 ]
    },
    "properties": {
    "name":"HEFEI/LUOGANG",
    "source":"SWERA",
    "wmo":"583210"
    }
  },
  {
    "type": "Feature",
    "geometry": {
       "type": "Point",
       "coordinates":  [ 116.32,31.4,68.1 ]
    },
    "properties": {
    "name":"Huoshan",
    "source":"CSWD",
    "wmo":"583140"
    }
  },
  {
    "type": "Feature",
    "geometry": {
       "type": "Point",
       "coordinates":  [ 116.47,39.8,31.3 ]
    },
    "properties": {
    "name":"Beijing",
    "source":"CSWD",
    "wmo":"545110"
    }
  },
  {
    "type": "Feature",
    "geometry": {
       "type": "Point",
       "coordinates":  [ 116.47,39.8,32 ]
    },
    "properties": {
    "name":"BEIJING",
    "source":"IWEC Data",
    "wmo":"545110"
    }
  },
  {
    "type": "Feature",
    "geometry": {
       "type": "Point",
       "coordinates":  [ 116.28,39.93,55 ]
    },
    "properties": {
    "name":"BEIJING/PEKING",
    "source":"SWERA",
    "wmo":"545110"
    }
  },
  {
    "type": "Feature",
    "geometry": {
       "type": "Point",
       "coordinates":  [ 106.47,29.58,259.1 ]
    },
    "properties": {
    "name":"Chongqing Shapingba",
    "source":"CSWD",
    "wmo":"575160"
    }
  },
  {
    "type": "Feature",
    "geometry": {
       "type": "Point",
       "coordinates":  [ 106.48,29.52,351 ]
    },
    "properties": {
    "name":"CHONGQING/CHUNGKING",
    "source":"SWERA",
    "wmo":"575160"
    }
  },
  {
    "type": "Feature",
    "geometry": {
       "type": "Point",
       "coordinates":  [ 108.77,28.83,664.1 ]
    },
    "properties": {
    "name":"Youyang",
    "source":"CSWD",
    "wmo":"576330"
    }
  },
  {
    "type": "Feature",
    "geometry": {
       "type": "Point",
       "coordinates":  [ 119.28,26.08,4 ]
    },
    "properties": {
    "name":"Fuzhou",
    "source":"CSWD",
    "wmo":"588470"
    }
  },
  {
    "type": "Feature",
    "geometry": {
       "type": "Point",
       "coordinates":  [ 118.17,26.65,125.1 ]
    },
    "properties": {
    "name":"Nanping",
    "source":"CSWD",
    "wmo":"588340"
    }
  },
  {
    "type": "Feature",
    "geometry": {
       "type": "Point",
       "coordinates":  [ 118.07,24.48,139.4 ]
    },
    "properties": {
    "name":"Xiamen",
    "source":"CSWD",
    "wmo":"591340"
    }
  },
  {
    "type": "Feature",
    "geometry": {
       "type": "Point",
       "coordinates":  [ 117.35,25.97,206 ]
    },
    "properties": {
    "name":"Yongan",
    "source":"CSWD",
    "wmo":"589210"
    }
  },
  {
    "type": "Feature",
    "geometry": {
       "type": "Point",
       "coordinates":  [ 94.68,40.15,1139 ]
    },
    "properties": {
    "name":"Dunhuang",
    "source":"CSWD",
    "wmo":"524180"
    }
  },
  {
    "type": "Feature",
    "geometry": {
       "type": "Point",
       "coordinates":  [ 102.9,35,2910 ]
    },
    "properties": {
    "name":"Hezuo",
    "source":"CSWD",
    "wmo":"560800"
    }
  },
  {
    "type": "Feature",
    "geometry": {
       "type": "Point",
       "coordinates":  [ 98.48,39.77,1477.2 ]
    },
    "properties": {
    "name":"Jiuquan",
    "source":"CSWD",
    "wmo":"525330"
    }
  },
  {
    "type": "Feature",
    "geometry": {
       "type": "Point",
       "coordinates":  [ 103.88,36.05,1517.2 ]
    },
    "properties": {
    "name":"Lanzhou",
    "source":"CSWD",
    "wmo":"528890"
    }
  },
  {
    "type": "Feature",
    "geometry": {
       "type": "Point",
       "coordinates":  [ 103.88,36.05,1518 ]
    },
    "properties": {
    "name":"LANZHOU",
    "source":"IWEC Data",
    "wmo":"528890"
    }
  },
  {
    "type": "Feature",
    "geometry": {
       "type": "Point",
       "coordinates":  [ 103.88,36.05,1518 ]
    },
    "properties": {
    "name":"LANZHOU",
    "source":"SWERA",
    "wmo":"528890"
    }
  },
  {
    "type": "Feature",
    "geometry": {
       "type": "Point",
       "coordinates":  [ 103.08,38.63,1367.5 ]
    },
    "properties": {
    "name":"Minqin",
    "source":"CSWD",
    "wmo":"526810"
    }
  },
  {
    "type": "Feature",
    "geometry": {
       "type": "Point",
       "coordinates":  [ 103.1,38.77,1367 ]
    },
    "properties": {
    "name":"MINQIN",
    "source":"SWERA",
    "wmo":"526810"
    }
  },
  {
    "type": "Feature",
    "geometry": {
       "type": "Point",
       "coordinates":  [ 106.67,35.55,1346.6 ]
    },
    "properties": {
    "name":"Pingliang",
    "source":"CSWD",
    "wmo":"539150"
    }
  },
  {
    "type": "Feature",
    "geometry": {
       "type": "Point",
       "coordinates":  [ 105.75,34.58,1141.7 ]
    },
    "properties": {
    "name":"Tianshui",
    "source":"CSWD",
    "wmo":"570060"
    }
  },
  {
    "type": "Feature",
    "geometry": {
       "type": "Point",
       "coordinates":  [ 104.92,33.4,1079.1 ]
    },
    "properties": {
    "name":"Wudu",
    "source":"CSWD",
    "wmo":"560960"
    }
  },
  {
    "type": "Feature",
    "geometry": {
       "type": "Point",
       "coordinates":  [ 104.92,33.4,1079 ]
    },
    "properties": {
    "name":"WUDU",
    "source":"SWERA",
    "wmo":"560960"
    }
  },
  {
    "type": "Feature",
    "geometry": {
       "type": "Point",
       "coordinates":  [ 102.87,37.2,3045.1 ]
    },
    "properties": {
    "name":"Wushaoling",
    "source":"CSWD",
    "wmo":"527870"
    }
  },
  {
    "type": "Feature",
    "geometry": {
       "type": "Point",
       "coordinates":  [ 107.63,35.73,1421 ]
    },
    "properties": {
    "name":"Xifengzhen",
    "source":"CSWD",
    "wmo":"539230"
    }
  },
  {
    "type": "Feature",
    "geometry": {
       "type": "Point",
       "coordinates":  [ 97.03,40.27,1526 ]
    },
    "properties": {
    "name":"Yumenzhen",
    "source":"CSWD",
    "wmo":"524360"
    }
  },
  {
    "type": "Feature",
    "geometry": {
       "type": "Point",
       "coordinates":  [ 97.03,40.27,1527 ]
    },
    "properties": {
    "name":"YUMENZHEN",
    "source":"SWERA",
    "wmo":"524360"
    }
  },
  {
    "type": "Feature",
    "geometry": {
       "type": "Point",
       "coordinates":  [ 113.33,23.17,41 ]
    },
    "properties": {
    "name":"Guangzhou",
    "source":"CSWD",
    "wmo":"592870"
    }
  },
  {
    "type": "Feature",
    "geometry": {
       "type": "Point",
       "coordinates":  [ 113.32,23.13,8 ]
    },
    "properties": {
    "name":"GUANGZHOU",
    "source":"IWEC Data",
    "wmo":"592870"
    }
  },
  {
    "type": "Feature",
    "geometry": {
       "type": "Point",
       "coordinates":  [ 114.68,23.73,40.6 ]
    },
    "properties": {
    "name":"Heyuan",
    "source":"CSWD",
    "wmo":"592930"
    }
  },
  {
    "type": "Feature",
    "geometry": {
       "type": "Point",
       "coordinates":  [ 116.68,23.4,2.9 ]
    },
    "properties": {
    "name":"Shantou",
    "source":"CSWD",
    "wmo":"593160"
    }
  },
  {
    "type": "Feature",
    "geometry": {
       "type": "Point",
       "coordinates":  [ 115.37,22.8,17.3 ]
    },
    "properties": {
    "name":"Shanwei",
    "source":"CSWD",
    "wmo":"595010"
    }
  },
  {
    "type": "Feature",
    "geometry": {
       "type": "Point",
       "coordinates":  [ 113.6,24.68,61 ]
    },
    "properties": {
    "name":"Shaoguan",
    "source":"CSWD",
    "wmo":"590820"
    }
  },
  {
    "type": "Feature",
    "geometry": {
       "type": "Point",
       "coordinates":  [ 114.1,22.55,18 ]
    },
    "properties": {
    "name":"SHENZHEN",
    "source":"SWERA",
    "wmo":"594930"
    }
  },
  {
    "type": "Feature",
    "geometry": {
       "type": "Point",
       "coordinates":  [ 111.97,21.87,23.3 ]
    },
    "properties": {
    "name":"Yangjiang",
    "source":"CSWD",
    "wmo":"596630"
    }
  },
  {
    "type": "Feature",
    "geometry": {
       "type": "Point",
       "coordinates":  [ 106.6,23.9,173.5 ]
    },
    "properties": {
    "name":"Baise",
    "source":"CSWD",
    "wmo":"592110"
    }
  },
  {
    "type": "Feature",
    "geometry": {
       "type": "Point",
       "coordinates":  [ 110.3,25.32,164.4 ]
    },
    "properties": {
    "name":"Guilin",
    "source":"CSWD",
    "wmo":"579570"
    }
  },
  {
    "type": "Feature",
    "geometry": {
       "type": "Point",
       "coordinates":  [ 110.08,23.4,42.5 ]
    },
    "properties": {
    "name":"Guiping",
    "source":"CSWD",
    "wmo":"592540"
    }
  },
  {
    "type": "Feature",
    "geometry": {
       "type": "Point",
       "coordinates":  [ 108.05,24.7,211 ]
    },
    "properties": {
    "name":"Hechi",
    "source":"CSWD",
    "wmo":"590230"
    }
  },
  {
    "type": "Feature",
    "geometry": {
       "type": "Point",
       "coordinates":  [ 106.85,22.33,128.8 ]
    },
    "properties": {
    "name":"Longzhou",
    "source":"CSWD",
    "wmo":"594170"
    }
  },
  {
    "type": "Feature",
    "geometry": {
       "type": "Point",
       "coordinates":  [ 108.22,22.63,121.6 ]
    },
    "properties": {
    "name":"Nanning",
    "source":"CSWD",
    "wmo":"594310"
    }
  },
  {
    "type": "Feature",
    "geometry": {
       "type": "Point",
       "coordinates":  [ 108.62,21.95,4.5 ]
    },
    "properties": {
    "name":"Qinzhou",
    "source":"CSWD",
    "wmo":"596320"
    }
  },
  {
    "type": "Feature",
    "geometry": {
       "type": "Point",
       "coordinates":  [ 111.3,23.48,114.8 ]
    },
    "properties": {
    "name":"Wuzhou",
    "source":"CSWD",
    "wmo":"592650"
    }
  },
  {
    "type": "Feature",
    "geometry": {
       "type": "Point",
       "coordinates":  [ 105.28,27.3,1510.6 ]
    },
    "properties": {
    "name":"Bijie",
    "source":"CSWD",
    "wmo":"577070"
    }
  },
  {
    "type": "Feature",
    "geometry": {
       "type": "Point",
       "coordinates":  [ 106.73,26.58,1223.8 ]
    },
    "properties": {
    "name":"Guiyang",
    "source":"CSWD",
    "wmo":"578160"
    }
  },
  {
    "type": "Feature",
    "geometry": {
       "type": "Point",
       "coordinates":  [ 106.72,26.58,1074 ]
    },
    "properties": {
    "name":"GUIYANG",
    "source":"SWERA",
    "wmo":"578160"
    }
  },
  {
    "type": "Feature",
    "geometry": {
       "type": "Point",
       "coordinates":  [ 108.67,26.97,626.9 ]
    },
    "properties": {
    "name":"Sansui",
    "source":"CSWD",
    "wmo":"578320"
    }
  },
  {
    "type": "Feature",
    "geometry": {
       "type": "Point",
       "coordinates":  [ 104.28,26.87,2237.5 ]
    },
    "properties": {
    "name":"Weining",
    "source":"CSWD",
    "wmo":"566910"
    }
  },
  {
    "type": "Feature",
    "geometry": {
       "type": "Point",
       "coordinates":  [ 105.18,25.43,1378.5 ]
    },
    "properties": {
    "name":"Xingyi",
    "source":"CSWD",
    "wmo":"579020"
    }
  },
  {
    "type": "Feature",
    "geometry": {
       "type": "Point",
       "coordinates":  [ 106.88,27.7,843.9 ]
    },
    "properties": {
    "name":"Zunyi",
    "source":"CSWD",
    "wmo":"577130"
    }
  },
  {
    "type": "Feature",
    "geometry": {
       "type": "Point",
       "coordinates":  [ 108.62,19.1,8.4 ]
    },
    "properties": {
    "name":"Dongfang",
    "source":"CSWD",
    "wmo":"598380"
    }
  },
  {
    "type": "Feature",
    "geometry": {
       "type": "Point",
       "coordinates":  [ 110.35,20.03,13.9 ]
    },
    "properties": {
    "name":"Haikou",
    "source":"CSWD",
    "wmo":"597580"
    }
  },
  {
    "type": "Feature",
    "geometry": {
       "type": "Point",
       "coordinates":  [ 110.47,19.23,24 ]
    },
    "properties": {
    "name":"Qionghai",
    "source":"CSWD",
    "wmo":"598550"
    }
  },
  {
    "type": "Feature",
    "geometry": {
       "type": "Point",
       "coordinates":  [ 117.95,40.98,385.9 ]
    },
    "properties": {
    "name":"Chengde",
    "source":"CSWD",
    "wmo":"544230"
    }
  },
  {
    "type": "Feature",
    "geometry": {
       "type": "Point",
       "coordinates":  [ 116.63,41.22,661.2 ]
    },
    "properties": {
    "name":"Fengning",
    "source":"CSWD",
    "wmo":"543080"
    }
  },
  {
    "type": "Feature",
    "geometry": {
       "type": "Point",
       "coordinates":  [ 115.5,40.4,536 ]
    },
    "properties": {
    "name":"Huailai",
    "source":"CSWD",
    "wmo":"544050"
    }
  },
  {
    "type": "Feature",
    "geometry": {
       "type": "Point",
       "coordinates":  [ 118.88,39.43,10 ]
    },
    "properties": {
    "name":"Leting",
    "source":"CSWD",
    "wmo":"545390"
    }
  },
  {
    "type": "Feature",
    "geometry": {
       "type": "Point",
       "coordinates":  [ 114.42,38.03,81 ]
    },
    "properties": {
    "name":"Shijiazhuang",
    "source":"CSWD",
    "wmo":"536980"
    }
  },
  {
    "type": "Feature",
    "geometry": {
       "type": "Point",
       "coordinates":  [ 114.5,37.07,77.3 ]
    },
    "properties": {
    "name":"Xingtai",
    "source":"CSWD",
    "wmo":"537980"
    }
  },
  {
    "type": "Feature",
    "geometry": {
       "type": "Point",
       "coordinates":  [ 125.32,46.38,149.3 ]
    },
    "properties": {
    "name":"Anda",
    "source":"CSWD",
    "wmo":"508540"
    }
  },
  {
    "type": "Feature",
    "geometry": {
       "type": "Point",
       "coordinates":  [ 131.98,47.23,66.4 ]
    },
    "properties": {
    "name":"Fujin",
    "source":"CSWD",
    "wmo":"507880"
    }
  },
  {
    "type": "Feature",
    "geometry": {
       "type": "Point",
       "coordinates":  [ 126.97,47.43,239.2 ]
    },
    "properties": {
    "name":"Hailun",
    "source":"CSWD",
    "wmo":"507560"
    }
  },
  {
    "type": "Feature",
    "geometry": {
       "type": "Point",
       "coordinates":  [ 126.77,45.75,142.3 ]
    },
    "properties": {
    "name":"Harbin",
    "source":"CSWD",
    "wmo":"509530"
    }
  },
  {
    "type": "Feature",
    "geometry": {
       "type": "Point",
       "coordinates":  [ 126.68,45.72,143 ]
    },
    "properties": {
    "name":"HARBIN",
    "source":"IWEC Data",
    "wmo":"509530"
    }
  },
  {
    "type": "Feature",
    "geometry": {
       "type": "Point",
       "coordinates":  [ 126.77,45.75,143 ]
    },
    "properties": {
    "name":"HARBIN",
    "source":"SWERA",
    "wmo":"509530"
    }
  },
  {
    "type": "Feature",
    "geometry": {
       "type": "Point",
       "coordinates":  [ 126.65,51.72,177.4 ]
    },
    "properties": {
    "name":"Huma",
    "source":"CSWD",
    "wmo":"503530"
    }
  },
  {
    "type": "Feature",
    "geometry": {
       "type": "Point",
       "coordinates":  [ 130.95,45.28,238.3 ]
    },
    "properties": {
    "name":"Jixi",
    "source":"CSWD",
    "wmo":"509780"
    }
  },
  {
    "type": "Feature",
    "geometry": {
       "type": "Point",
       "coordinates":  [ 125.88,48.05,234.6 ]
    },
    "properties": {
    "name":"Keshan",
    "source":"CSWD",
    "wmo":"506580"
    }
  },
  {
    "type": "Feature",
    "geometry": {
       "type": "Point",
       "coordinates":  [ 122.52,52.97,433 ]
    },
    "properties": {
    "name":"Mohe",
    "source":"CSWD",
    "wmo":"501360"
    }
  },
  {
    "type": "Feature",
    "geometry": {
       "type": "Point",
       "coordinates":  [ 129.6,44.57,241.4 ]
    },
    "properties": {
    "name":"Mudanjiang",
    "source":"CSWD",
    "wmo":"540940"
    }
  },
  {
    "type": "Feature",
    "geometry": {
       "type": "Point",
       "coordinates":  [ 125.23,49.17,242.2 ]
    },
    "properties": {
    "name":"Nenjiang",
    "source":"CSWD",
    "wmo":"505570"
    }
  },
  {
    "type": "Feature",
    "geometry": {
       "type": "Point",
       "coordinates":  [ 123.92,47.38,147.1 ]
    },
    "properties": {
    "name":"Qiqihar",
    "source":"CSWD",
    "wmo":"507450"
    }
  },
  {
    "type": "Feature",
    "geometry": {
       "type": "Point",
       "coordinates":  [ 127.97,45.22,189.7 ]
    },
    "properties": {
    "name":"Shangzhi",
    "source":"CSWD",
    "wmo":"509680"
    }
  },
  {
    "type": "Feature",
    "geometry": {
       "type": "Point",
       "coordinates":  [ 131.17,44.38,567.8 ]
    },
    "properties": {
    "name":"Suifenhe",
    "source":"CSWD",
    "wmo":"540960"
    }
  },
  {
    "type": "Feature",
    "geometry": {
       "type": "Point",
       "coordinates":  [ 127.35,49.43,234.5 ]
    },
    "properties": {
    "name":"Sunwu",
    "source":"CSWD",
    "wmo":"505640"
    }
  },
  {
    "type": "Feature",
    "geometry": {
       "type": "Point",
       "coordinates":  [ 128.73,45.97,108.6 ]
    },
    "properties": {
    "name":"Tonghe",
    "source":"CSWD",
    "wmo":"509630"
    }
  },
  {
    "type": "Feature",
    "geometry": {
       "type": "Point",
       "coordinates":  [ 114.4,36.05,62.9 ]
    },
    "properties": {
    "name":"Anyang",
    "source":"CSWD",
    "wmo":"538980"
    }
  },
  {
    "type": "Feature",
    "geometry": {
       "type": "Point",
       "coordinates":  [ 111.03,34.05,568.8 ]
    },
    "properties": {
    "name":"Lushi",
    "source":"CSWD",
    "wmo":"570670"
    }
  },
  {
    "type": "Feature",
    "geometry": {
       "type": "Point",
       "coordinates":  [ 112.58,33.03,129.2 ]
    },
    "properties": {
    "name":"Nanyang",
    "source":"CSWD",
    "wmo":"571780"
    }
  },
  {
    "type": "Feature",
    "geometry": {
       "type": "Point",
       "coordinates":  [ 114.05,32.13,114.5 ]
    },
    "properties": {
    "name":"Xinyang",
    "source":"CSWD",
    "wmo":"572970"
    }
  },
  {
    "type": "Feature",
    "geometry": {
       "type": "Point",
       "coordinates":  [ 113.65,34.72,110.4 ]
    },
    "properties": {
    "name":"Zhengzhou",
    "source":"CSWD",
    "wmo":"570830"
    }
  },
  {
    "type": "Feature",
    "geometry": {
       "type": "Point",
       "coordinates":  [ 114.02,33,82.7 ]
    },
    "properties": {
    "name":"Zhumadian",
    "source":"CSWD",
    "wmo":"572900"
    }
  },
  {
    "type": "Feature",
    "geometry": {
       "type": "Point",
       "coordinates":  [ 114.17,22.32,65 ]
    },
    "properties": {
    "name":"HONG KONG",
    "source":"CityUHK-45007",
    "wmo":"450070"
    }
  },
  {
    "type": "Feature",
    "geometry": {
       "type": "Point",
       "coordinates":  [ 109.47,30.28,457.1 ]
    },
    "properties": {
    "name":"Exi",
    "source":"CSWD",
    "wmo":"574470"
    }
  },
  {
    "type": "Feature",
    "geometry": {
       "type": "Point",
       "coordinates":  [ 111.67,32.38,90 ]
    },
    "properties": {
    "name":"Laohekou",
    "source":"CSWD",
    "wmo":"572650"
    }
  },
  {
    "type": "Feature",
    "geometry": {
       "type": "Point",
       "coordinates":  [ 115.02,31.18,59.3 ]
    },
    "properties": {
    "name":"Macheng",
    "source":"CSWD",
    "wmo":"573990"
    }
  },
  {
    "type": "Feature",
    "geometry": {
       "type": "Point",
       "coordinates":  [ 114.13,30.62,23.1 ]
    },
    "properties": {
    "name":"Wuhan",
    "source":"CSWD",
    "wmo":"574940"
    }
  },
  {
    "type": "Feature",
    "geometry": {
       "type": "Point",
       "coordinates":  [ 114.13,30.62,23 ]
    },
    "properties": {
    "name":"WUHAN/NANHU",
    "source":"SWERA",
    "wmo":"574940"
    }
  },
  {
    "type": "Feature",
    "geometry": {
       "type": "Point",
       "coordinates":  [ 111.3,30.7,133.1 ]
    },
    "properties": {
    "name":"Yichang",
    "source":"CSWD",
    "wmo":"574610"
    }
  },
  {
    "type": "Feature",
    "geometry": {
       "type": "Point",
       "coordinates":  [ 112.57,31.17,65.8 ]
    },
    "properties": {
    "name":"Zhongxiang",
    "source":"CSWD",
    "wmo":"573780"
    }
  },
  {
    "type": "Feature",
    "geometry": {
       "type": "Point",
       "coordinates":  [ 111.68,29.05,35 ]
    },
    "properties": {
    "name":"Changde",
    "source":"CSWD",
    "wmo":"576620"
    }
  },
  {
    "type": "Feature",
    "geometry": {
       "type": "Point",
       "coordinates":  [ 112.92,28.22,68 ]
    },
    "properties": {
    "name":"Changsha",
    "source":"CSWD",
    "wmo":"576870"
    }
  },
  {
    "type": "Feature",
    "geometry": {
       "type": "Point",
       "coordinates":  [ 112.87,28.23,68 ]
    },
    "properties": {
    "name":"CHANGSHA",
    "source":"SWERA",
    "wmo":"576870"
    }
  },
  {
    "type": "Feature",
    "geometry": {
       "type": "Point",
       "coordinates":  [ 111.62,26.23,172.6 ]
    },
    "properties": {
    "name":"Lingling",
    "source":"CSWD",
    "wmo":"578660"
    }
  },
  {
    "type": "Feature",
    "geometry": {
       "type": "Point",
       "coordinates":  [ 110.63,26.73,341 ]
    },
    "properties": {
    "name":"Wugang",
    "source":"CSWD",
    "wmo":"578530"
    }
  },
  {
    "type": "Feature",
    "geometry": {
       "type": "Point",
       "coordinates":  [ 109.68,27.45,272.2 ]
    },
    "properties": {
    "name":"Zhijiang",
    "source":"CSWD",
    "wmo":"577450"
    }
  },
  {
    "type": "Feature",
    "geometry": {
       "type": "Point",
       "coordinates":  [ 120.32,32.87,4.3 ]
    },
    "properties": {
    "name":"Dongtai",
    "source":"CSWD",
    "wmo":"582510"
    }
  },
  {
    "type": "Feature",
    "geometry": {
       "type": "Point",
       "coordinates":  [ 119.12,34.83,3.3 ]
    },
    "properties": {
    "name":"Ganyu",
    "source":"CSWD",
    "wmo":"580400"
    }
  },
  {
    "type": "Feature",
    "geometry": {
       "type": "Point",
       "coordinates":  [ 121.6,32.07,5.5 ]
    },
    "properties": {
    "name":"Lusi",
    "source":"CSWD",
    "wmo":"582650"
    }
  },
  {
    "type": "Feature",
    "geometry": {
       "type": "Point",
       "coordinates":  [ 118.8,32.83,7.1 ]
    },
    "properties": {
    "name":"Nanjing",
    "source":"CSWD",
    "wmo":"582380"
    }
  },
  {
    "type": "Feature",
    "geometry": {
       "type": "Point",
       "coordinates":  [ 117.15,34.28,41.2 ]
    },
    "properties": {
    "name":"Xuzhou",
    "source":"CSWD",
    "wmo":"580270"
    }
  },
  {
    "type": "Feature",
    "geometry": {
       "type": "Point",
       "coordinates":  [ 115,25.87,137.5 ]
    },
    "properties": {
    "name":"Ganzhou",
    "source":"CSWD",
    "wmo":"579930"
    }
  },
  {
    "type": "Feature",
    "geometry": {
       "type": "Point",
       "coordinates":  [ 114.92,27.05,71.2 ]
    },
    "properties": {
    "name":"Jian",
    "source":"CSWD",
    "wmo":"577990"
    }
  },
  {
    "type": "Feature",
    "geometry": {
       "type": "Point",
       "coordinates":  [ 117.2,29.3,61.5 ]
    },
    "properties": {
    "name":"Jingdezhen",
    "source":"CSWD",
    "wmo":"585270"
    }
  },
  {
    "type": "Feature",
    "geometry": {
       "type": "Point",
       "coordinates":  [ 115.92,28.6,46.9 ]
    },
    "properties": {
    "name":"Nanchang",
    "source":"CSWD",
    "wmo":"586060"
    }
  },
  {
    "type": "Feature",
    "geometry": {
       "type": "Point",
       "coordinates":  [ 116.65,27.58,80.8 ]
    },
    "properties": {
    "name":"Nancheng",
    "source":"CSWD",
    "wmo":"587150"
    }
  },
  {
    "type": "Feature",
    "geometry": {
       "type": "Point",
       "coordinates":  [ 116.65,27.58,82 ]
    },
    "properties": {
    "name":"NANCHENG",
    "source":"SWERA",
    "wmo":"587150"
    }
  },
  {
    "type": "Feature",
    "geometry": {
       "type": "Point",
       "coordinates":  [ 118.8,32,12 ]
    },
    "properties": {
    "name":"NANJING/NANKING",
    "source":"SWERA",
    "wmo":"582380"
    }
  },
  {
    "type": "Feature",
    "geometry": {
       "type": "Point",
       "coordinates":  [ 114.38,27.8,131.3 ]
    },
    "properties": {
    "name":"Yichun",
    "source":"CSWD",
    "wmo":"577930"
    }
  },
  {
    "type": "Feature",
    "geometry": {
       "type": "Point",
       "coordinates":  [ 125.22,43.9,236.8 ]
    },
    "properties": {
    "name":"Changchun",
    "source":"CSWD",
    "wmo":"541610"
    }
  },
  {
    "type": "Feature",
    "geometry": {
       "type": "Point",
       "coordinates":  [ 128.2,43.37,524.9 ]
    },
    "properties": {
    "name":"Dunhua",
    "source":"CSWD",
    "wmo":"541860"
    }
  },
  {
    "type": "Feature",
    "geometry": {
       "type": "Point",
       "coordinates":  [ 126.92,41,332.7 ]
    },
    "properties": {
    "name":"Linjiang",
    "source":"CSWD",
    "wmo":"543740"
    }
  },
  {
    "type": "Feature",
    "geometry": {
       "type": "Point",
       "coordinates":  [ 124.87,45.08,136.2 ]
    },
    "properties": {
    "name":"Qian Gorlos",
    "source":"CSWD",
    "wmo":"509490"
    }
  },
  {
    "type": "Feature",
    "geometry": {
       "type": "Point",
       "coordinates":  [ 124.33,43.17,165.7 ]
    },
    "properties": {
    "name":"Siping",
    "source":"CSWD",
    "wmo":"541570"
    }
  },
  {
    "type": "Feature",
    "geometry": {
       "type": "Point",
       "coordinates":  [ 129.47,42.88,176.8 ]
    },
    "properties": {
    "name":"Yanji",
    "source":"CSWD",
    "wmo":"542920"
    }
  },
  {
    "type": "Feature",
    "geometry": {
       "type": "Point",
       "coordinates":  [ 75.98,39.47,1291 ]
    },
    "properties": {
    "name":"KASHI",
    "source":"SWERA",
    "wmo":"517090"
    }
  },
  {
    "type": "Feature",
    "geometry": {
       "type": "Point",
       "coordinates":  [ 82.95,41.72,1100 ]
    },
    "properties": {
    "name":"KUQA",
    "source":"SWERA",
    "wmo":"516440"
    }
  },
  {
    "type": "Feature",
    "geometry": {
       "type": "Point",
       "coordinates":  [ 81.33,43.95,663 ]
    },
    "properties": {
    "name":"YINING",
    "source":"SWERA",
    "wmo":"514310"
    }
  },
  {
    "type": "Feature",
    "geometry": {
       "type": "Point",
       "coordinates":  [ 79.93,37.13,1375 ]
    },
    "properties": {
    "name":"HOTAN",
    "source":"SWERA",
    "wmo":"518280"
    }
  },
  {
    "type": "Feature",
    "geometry": {
       "type": "Point",
       "coordinates":  [ 123.78,41.32,185.4 ]
    },
    "properties": {
    "name":"Benxi",
    "source":"CSWD",
    "wmo":"543460"
    }
  },
  {
    "type": "Feature",
    "geometry": {
       "type": "Point",
       "coordinates":  [ 120.45,41.55,169.9 ]
    },
    "properties": {
    "name":"Chaoyang",
    "source":"CSWD",
    "wmo":"543240"
    }
  },
  {
    "type": "Feature",
    "geometry": {
       "type": "Point",
       "coordinates":  [ 121.63,38.9,91.5 ]
    },
    "properties": {
    "name":"Dalian",
    "source":"CSWD",
    "wmo":"546620"
    }
  },
  {
    "type": "Feature",
    "geometry": {
       "type": "Point",
       "coordinates":  [ 121.63,38.9,97 ]
    },
    "properties": {
    "name":"DALIAN/DAIREN/LUDA",
    "source":"SWERA",
    "wmo":"546620"
    }
  },
  {
    "type": "Feature",
    "geometry": {
       "type": "Point",
       "coordinates":  [ 124.33,40.05,13.8 ]
    },
    "properties": {
    "name":"Dandong",
    "source":"CSWD",
    "wmo":"544970"
    }
  },
  {
    "type": "Feature",
    "geometry": {
       "type": "Point",
       "coordinates":  [ 121.12,41.68,65.9 ]
    },
    "properties": {
    "name":"Jinzhou",
    "source":"CSWD",
    "wmo":"543370"
    }
  },
  {
    "type": "Feature",
    "geometry": {
       "type": "Point",
       "coordinates":  [ 124.78,40.72,260.1 ]
    },
    "properties": {
    "name":"Kuandian",
    "source":"CSWD",
    "wmo":"544930"
    }
  },
  {
    "type": "Feature",
    "geometry": {
       "type": "Point",
       "coordinates":  [ 123.45,41.73,44.7 ]
    },
    "properties": {
    "name":"Shenyang",
    "source":"CSWD",
    "wmo":"543420"
    }
  },
  {
    "type": "Feature",
    "geometry": {
       "type": "Point",
       "coordinates":  [ 123.48,41.78,43 ]
    },
    "properties": {
    "name":"SHENYANG",
    "source":"IWEC Data",
    "wmo":"543420"
    }
  },
  {
    "type": "Feature",
    "geometry": {
       "type": "Point",
       "coordinates":  [ 122.27,40.67,3.3 ]
    },
    "properties": {
    "name":"Yingkou",
    "source":"CSWD",
    "wmo":"544710"
    }
  },
  {
    "type": "Feature",
    "geometry": {
       "type": "Point",
       "coordinates":  [ 122.53,42.42,79.4 ]
    },
    "properties": {
    "name":"Zhangwu",
    "source":"CSWD",
    "wmo":"542360"
    }
  },
  {
    "type": "Feature",
    "geometry": {
       "type": "Point",
       "coordinates":  [ 114.95,44.02,1126.1 ]
    },
    "properties": {
    "name":"Abag Qi Hot",
    "source":"CSWD",
    "wmo":"531920"
    }
  },
  {
    "type": "Feature",
    "geometry": {
       "type": "Point",
       "coordinates":  [ 119.93,47.17,997.2 ]
    },
    "properties": {
    "name":"Arxan",
    "source":"CSWD",
    "wmo":"507270"
    }
  },
  {
    "type": "Feature",
    "geometry": {
       "type": "Point",
       "coordinates":  [ 110.43,41.7,1376.6 ]
    },
    "properties": {
    "name":"Bailingmiao",
    "source":"CSWD",
    "wmo":"533520"
    }
  },
  {
    "type": "Feature",
    "geometry": {
       "type": "Point",
       "coordinates":  [ 110.43,41.7,1377 ]
    },
    "properties": {
    "name":"BAILING-MIAO",
    "source":"SWERA",
    "wmo":"533520"
    }
  },
  {
    "type": "Feature",
    "geometry": {
       "type": "Point",
       "coordinates":  [ 119.4,43.98,486.2 ]
    },
    "properties": {
    "name":"Bairin Zuo Qi",
    "source":"CSWD",
    "wmo":"540270"
    }
  },
  {
    "type": "Feature",
    "geometry": {
       "type": "Point",
       "coordinates":  [ 104.8,40.17,1323 ]
    },
    "properties": {
    "name":"Bayan Mod",
    "source":"CSWD",
    "wmo":"524950"
    }
  },
  {
    "type": "Feature",
    "geometry": {
       "type": "Point",
       "coordinates":  [ 121.92,48.77,739.7 ]
    },
    "properties": {
    "name":"Bugt",
    "source":"CSWD",
    "wmo":"506320"
    }
  },
  {
    "type": "Feature",
    "geometry": {
       "type": "Point",
       "coordinates":  [ 121.92,48.77,739 ]
    },
    "properties": {
    "name":"BUGT",
    "source":"SWERA",
    "wmo":"506320"
    }
  },
  {
    "type": "Feature",
    "geometry": {
       "type": "Point",
       "coordinates":  [ 118.93,42.27,568 ]
    },
    "properties": {
    "name":"Chifeng",
    "source":"CSWD",
    "wmo":"542180"
    }
  },
  {
    "type": "Feature",
    "geometry": {
       "type": "Point",
       "coordinates":  [ 116.97,45.52,838.9 ]
    },
    "properties": {
    "name":"Dong Ujimqin Qi",
    "source":"CSWD",
    "wmo":"509150"
    }
  },
  {
    "type": "Feature",
    "geometry": {
       "type": "Point",
       "coordinates":  [ 109.98,39.83,1461.9 ]
    },
    "properties": {
    "name":"Dongsheng",
    "source":"CSWD",
    "wmo":"535430"
    }
  },
  {
    "type": "Feature",
    "geometry": {
       "type": "Point",
       "coordinates":  [ 116.47,42.18,1245.4 ]
    },
    "properties": {
    "name":"Duolun",
    "source":"CSWD",
    "wmo":"542080"
    }
  },
  {
    "type": "Feature",
    "geometry": {
       "type": "Point",
       "coordinates":  [ 101.07,41.95,940.5 ]
    },
    "properties": {
    "name":"Ejin Qi",
    "source":"CSWD",
    "wmo":"522670"
    }
  },
  {
    "type": "Feature",
    "geometry": {
       "type": "Point",
       "coordinates":  [ 101.07,41.95,941 ]
    },
    "properties": {
    "name":"EJIN_QI",
    "source":"SWERA",
    "wmo":"522670"
    }
  },
  {
    "type": "Feature",
    "geometry": {
       "type": "Point",
       "coordinates":  [ 111.97,43.65,964.7 ]
    },
    "properties": {
    "name":"Erenhot",
    "source":"CSWD",
    "wmo":"530680"
    }
  },
  {
    "type": "Feature",
    "geometry": {
       "type": "Point",
       "coordinates":  [ 119.75,49.22,610.2 ]
    },
    "properties": {
    "name":"Hailar",
    "source":"CSWD",
    "wmo":"505270"
    }
  },
  {
    "type": "Feature",
    "geometry": {
       "type": "Point",
       "coordinates":  [ 106.4,41.4,1509.6 ]
    },
    "properties": {
    "name":"Hailisu",
    "source":"CSWD",
    "wmo":"532310"
    }
  },
  {
    "type": "Feature",
    "geometry": {
       "type": "Point",
       "coordinates":  [ 108.52,41.57,1288 ]
    },
    "properties": {
    "name":"Haliut",
    "source":"CSWD",
    "wmo":"533360"
    }
  },
  {
    "type": "Feature",
    "geometry": {
       "type": "Point",
       "coordinates":  [ 111.68,40.82,1063 ]
    },
    "properties": {
    "name":"Hohhot",
    "source":"CSWD",
    "wmo":"534630"
    }
  },
  {
    "type": "Feature",
    "geometry": {
       "type": "Point",
       "coordinates":  [ 114,41.9,1482.7 ]
    },
    "properties": {
    "name":"Huade",
    "source":"CSWD",
    "wmo":"533910"
    }
  },
  {
    "type": "Feature",
    "geometry": {
       "type": "Point",
       "coordinates":  [ 114,41.9,1484 ]
    },
    "properties": {
    "name":"HUADE",
    "source":"SWERA",
    "wmo":"533910"
    }
  },
  {
    "type": "Feature",
    "geometry": {
       "type": "Point",
       "coordinates":  [ 105.75,39.78,1031.8 ]
    },
    "properties": {
    "name":"Jartai",
    "source":"CSWD",
    "wmo":"535020"
    }
  },
  {
    "type": "Feature",
    "geometry": {
       "type": "Point",
       "coordinates":  [ 105.75,39.78,1033 ]
    },
    "properties": {
    "name":"JARTAI",
    "source":"SWERA",
    "wmo":"535020"
    }
  },
  {
    "type": "Feature",
    "geometry": {
       "type": "Point",
       "coordinates":  [ 120.9,44.57,265 ]
    },
    "properties": {
    "name":"Jarud Qi",
    "source":"CSWD",
    "wmo":"540260"
    }
  },
  {
    "type": "Feature",
    "geometry": {
       "type": "Point",
       "coordinates":  [ 112.9,42.4,1150.8 ]
    },
    "properties": {
    "name":"Jurh",
    "source":"CSWD",
    "wmo":"532760"
    }
  },
  {
    "type": "Feature",
    "geometry": {
       "type": "Point",
       "coordinates":  [ 118.07,43.6,799.5 ]
    },
    "properties": {
    "name":"Linxi",
    "source":"CSWD",
    "wmo":"541150"
    }
  },
  {
    "type": "Feature",
    "geometry": {
       "type": "Point",
       "coordinates":  [ 118.07,43.6,800 ]
    },
    "properties": {
    "name":"LINXI",
    "source":"SWERA",
    "wmo":"541150"
    }
  },
  {
    "type": "Feature",
    "geometry": {
       "type": "Point",
       "coordinates":  [ 107.98,39.1,1380.3 ]
    },
    "properties": {
    "name":"Otog Qi",
    "source":"CSWD",
    "wmo":"535290"
    }
  },
  {
    "type": "Feature",
    "geometry": {
       "type": "Point",
       "coordinates":  [ 122.27,43.6,178.7 ]
    },
    "properties": {
    "name":"Tongliao",
    "source":"CSWD",
    "wmo":"541350"
    }
  },
  {
    "type": "Feature",
    "geometry": {
       "type": "Point",
       "coordinates":  [ 122.27,43.6,180 ]
    },
    "properties": {
    "name":"TONGLIAO",
    "source":"SWERA",
    "wmo":"541350"
    }
  },
  {
    "type": "Feature",
    "geometry": {
       "type": "Point",
       "coordinates":  [ 121.68,50.48,732.6 ]
    },
    "properties": {
    "name":"Tulihe",
    "source":"CSWD",
    "wmo":"504340"
    }
  },
  {
    "type": "Feature",
    "geometry": {
       "type": "Point",
       "coordinates":  [ 117.6,44.58,995.9 ]
    },
    "properties": {
    "name":"Xi Ujimqin Qi",
    "source":"CSWD",
    "wmo":"540120"
    }
  },
  {
    "type": "Feature",
    "geometry": {
       "type": "Point",
       "coordinates":  [ 116.12,43.95,1003 ]
    },
    "properties": {
    "name":"Xilinhot",
    "source":"CSWD",
    "wmo":"541020"
    }
  },
  {
    "type": "Feature",
    "geometry": {
       "type": "Point",
       "coordinates":  [ 107.38,37.8,1349.3 ]
    },
    "properties": {
    "name":"Yanchi",
    "source":"CSWD",
    "wmo":"537230"
    }
  },
  {
    "type": "Feature",
    "geometry": {
       "type": "Point",
       "coordinates":  [ 106.22,38.48,1111.4 ]
    },
    "properties": {
    "name":"Yinchuan",
    "source":"CSWD",
    "wmo":"536140"
    }
  },
  {
    "type": "Feature",
    "geometry": {
       "type": "Point",
       "coordinates":  [ 95.37,37.85,3173.2 ]
    },
    "properties": {
    "name":"Daqaidam",
    "source":"CSWD",
    "wmo":"527130"
    }
  },
  {
    "type": "Feature",
    "geometry": {
       "type": "Point",
       "coordinates":  [ 99.65,33.75,3967.5 ]
    },
    "properties": {
    "name":"Darlag",
    "source":"CSWD",
    "wmo":"560460"
    }
  },
  {
    "type": "Feature",
    "geometry": {
       "type": "Point",
       "coordinates":  [ 98.1,36.3,3191.1 ]
    },
    "properties": {
    "name":"Dulan Us",
    "source":"CSWD",
    "wmo":"528360"
    }
  },
  {
    "type": "Feature",
    "geometry": {
       "type": "Point",
       "coordinates":  [ 100.13,37.33,3301.5 ]
    },
    "properties": {
    "name":"Gangca",
    "source":"CSWD",
    "wmo":"527540"
    }
  },
  {
    "type": "Feature",
    "geometry": {
       "type": "Point",
       "coordinates":  [ 94.9,36.42,2807.6 ]
    },
    "properties": {
    "name":"Golmud",
    "source":"CSWD",
    "wmo":"528180"
    }
  },
  {
    "type": "Feature",
    "geometry": {
       "type": "Point",
       "coordinates":  [ 97.37,37.37,2982 ]
    },
    "properties": {
    "name":"DELINGHA",
    "source":"SWERA",
    "wmo":"527370"
    }
  },
  {
    "type": "Feature",
    "geometry": {
       "type": "Point",
       "coordinates":  [ 93.33,38.75,2770 ]
    },
    "properties": {
    "name":"Lenghu",
    "source":"CSWD",
    "wmo":"526020"
    }
  },
  {
    "type": "Feature",
    "geometry": {
       "type": "Point",
       "coordinates":  [ 98.22,34.92,4272.3 ]
    },
    "properties": {
    "name":"Madoi",
    "source":"CSWD",
    "wmo":"560330"
    }
  },
  {
    "type": "Feature",
    "geometry": {
       "type": "Point",
       "coordinates":  [ 98.22,34.92,4273 ]
    },
    "properties": {
    "name":"MADOI/HUANGHEYAN",
    "source":"SWERA",
    "wmo":"560330"
    }
  },
  {
    "type": "Feature",
    "geometry": {
       "type": "Point",
       "coordinates":  [ 90.85,38.25,2945 ]
    },
    "properties": {
    "name":"MANGNAI",
    "source":"SWERA",
    "wmo":"518860"
    }
  },
  {
    "type": "Feature",
    "geometry": {
       "type": "Point",
       "coordinates":  [ 95.78,34.13,4175 ]
    },
    "properties": {
    "name":"Qumarleb",
    "source":"CSWD",
    "wmo":"560210"
    }
  },
  {
    "type": "Feature",
    "geometry": {
       "type": "Point",
       "coordinates":  [ 92.43,34.22,4533.1 ]
    },
    "properties": {
    "name":"Tuotuohe",
    "source":"CSWD",
    "wmo":"560040"
    }
  },
  {
    "type": "Feature",
    "geometry": {
       "type": "Point",
       "coordinates":  [ 92.43,34.22,4535 ]
    },
    "properties": {
    "name":"TUOTUOHE/TANGGULASH",
    "source":"SWERA",
    "wmo":"560040"
    }
  },
  {
    "type": "Feature",
    "geometry": {
       "type": "Point",
       "coordinates":  [ 101.75,36.72,2295.2 ]
    },
    "properties": {
    "name":"Xining",
    "source":"CSWD",
    "wmo":"528660"
    }
  },
  {
    "type": "Feature",
    "geometry": {
       "type": "Point",
       "coordinates":  [ 97.02,33.02,3681.2 ]
    },
    "properties": {
    "name":"Yushu",
    "source":"CSWD",
    "wmo":"560290"
    }
  },
  {
    "type": "Feature",
    "geometry": {
       "type": "Point",
       "coordinates":  [ 109.03,32.72,291 ]
    },
    "properties": {
    "name":"ANKANG/XING'AN",
    "source":"SWERA",
    "wmo":"572450"
    }
  },
  {
    "type": "Feature",
    "geometry": {
       "type": "Point",
       "coordinates":  [ 109.03,32.72,290.8 ]
    },
    "properties": {
    "name":"Ankangan",
    "source":"CSWD",
    "wmo":"572450"
    }
  },
  {
    "type": "Feature",
    "geometry": {
       "type": "Point",
       "coordinates":  [ 107.13,34.35,610 ]
    },
    "properties": {
    "name":"BAOJI",
    "source":"SWERA",
    "wmo":"570160"
    }
  },
  {
    "type": "Feature",
    "geometry": {
       "type": "Point",
       "coordinates":  [ 107.03,33.07,509.5 ]
    },
    "properties": {
    "name":"Hanzhong",
    "source":"CSWD",
    "wmo":"571270"
    }
  },
  {
    "type": "Feature",
    "geometry": {
       "type": "Point",
       "coordinates":  [ 108.93,34.3,397.5 ]
    },
    "properties": {
    "name":"Xian",
    "source":"CSWD",
    "wmo":"570360"
    }
  },
  {
    "type": "Feature",
    "geometry": {
       "type": "Point",
       "coordinates":  [ 109.5,36.6,958.5 ]
    },
    "properties": {
    "name":"Yanan",
    "source":"CSWD",
    "wmo":"538450"
    }
  },
  {
    "type": "Feature",
    "geometry": {
       "type": "Point",
       "coordinates":  [ 109.7,38.23,1057.5 ]
    },
    "properties": {
    "name":"Yulin",
    "source":"CSWD",
    "wmo":"536460"
    }
  },
  {
    "type": "Feature",
    "geometry": {
       "type": "Point",
       "coordinates":  [ 109.7,38.23,1058 ]
    },
    "properties": {
    "name":"YULIN",
    "source":"SWERA",
    "wmo":"536460"
    }
  },
  {
    "type": "Feature",
    "geometry": {
       "type": "Point",
       "coordinates":  [ 115.67,36.23,37.8 ]
    },
    "properties": {
    "name":"Chaoyang",
    "source":"CSWD",
    "wmo":"548080"
    }
  },
  {
    "type": "Feature",
    "geometry": {
       "type": "Point",
       "coordinates":  [ 122.68,37.4,47.7 ]
    },
    "properties": {
    "name":"Chengshantou",
    "source":"CSWD",
    "wmo":"547760"
    }
  },
  {
    "type": "Feature",
    "geometry": {
       "type": "Point",
       "coordinates":  [ 117.53,37.48,11.7 ]
    },
    "properties": {
    "name":"Huimin Xian",
    "source":"CSWD",
    "wmo":"547250"
    }
  },
  {
    "type": "Feature",
    "geometry": {
       "type": "Point",
       "coordinates":  [ 117.05,36.6,170.3 ]
    },
    "properties": {
    "name":"Jinan",
    "source":"CSWD",
    "wmo":"548230"
    }
  },
  {
    "type": "Feature",
    "geometry": {
       "type": "Point",
       "coordinates":  [ 120.32,37.62,4.8 ]
    },
    "properties": {
    "name":"Longkou",
    "source":"CSWD",
    "wmo":"547530"
    }
  },
  {
    "type": "Feature",
    "geometry": {
       "type": "Point",
       "coordinates":  [ 119.18,36.75,22.2 ]
    },
    "properties": {
    "name":"Weifang",
    "source":"CSWD",
    "wmo":"548430"
    }
  },
  {
    "type": "Feature",
    "geometry": {
       "type": "Point",
       "coordinates":  [ 116.85,35.57,51.7 ]
    },
    "properties": {
    "name":"Yanzhou",
    "source":"CSWD",
    "wmo":"549160"
    }
  },
  {
    "type": "Feature",
    "geometry": {
       "type": "Point",
       "coordinates":  [ 121.45,31.4,5.5 ]
    },
    "properties": {
    "name":"Shanghai",
    "source":"CSWD",
    "wmo":"583620"
    }
  },
  {
    "type": "Feature",
    "geometry": {
       "type": "Point",
       "coordinates":  [ 121.43,31.17,7 ]
    },
    "properties": {
    "name":"SHANGHAI/HONGQIAO",
    "source":"SWERA",
    "wmo":"583620"
    }
  },
  {
    "type": "Feature",
    "geometry": {
       "type": "Point",
       "coordinates":  [ 121.43,31.17,7 ]
    },
    "properties": {
    "name":"SHANGHAI",
    "source":"IWEC Data",
    "wmo":"583670"
    }
  },
  {
    "type": "Feature",
    "geometry": {
       "type": "Point",
       "coordinates":  [ 113.33,40.1,1067.2 ]
    },
    "properties": {
    "name":"Datong",
    "source":"CSWD",
    "wmo":"534870"
    }
  },
  {
    "type": "Feature",
    "geometry": {
       "type": "Point",
       "coordinates":  [ 111.92,37.03,743.9 ]
    },
    "properties": {
    "name":"Jiexiu",
    "source":"CSWD",
    "wmo":"538630"
    }
  },
  {
    "type": "Feature",
    "geometry": {
       "type": "Point",
       "coordinates":  [ 112.55,37.78,778.3 ]
    },
    "properties": {
    "name":"Taiyuan",
    "source":"CSWD",
    "wmo":"537720"
    }
  },
  {
    "type": "Feature",
    "geometry": {
       "type": "Point",
       "coordinates":  [ 112.72,38.73,828.2 ]
    },
    "properties": {
    "name":"Yuanping",
    "source":"CSWD",
    "wmo":"536730"
    }
  },
  {
    "type": "Feature",
    "geometry": {
       "type": "Point",
       "coordinates":  [ 111.05,35.05,365 ]
    },
    "properties": {
    "name":"Yuncheng",
    "source":"CSWD",
    "wmo":"539590"
    }
  },
  {
    "type": "Feature",
    "geometry": {
       "type": "Point",
       "coordinates":  [ 112.98,37.07,1041.4 ]
    },
    "properties": {
    "name":"Yushe",
    "source":"CSWD",
    "wmo":"537870"
    }
  },
  {
    "type": "Feature",
    "geometry": {
       "type": "Point",
       "coordinates":  [ 102.23,31.9,2664.4 ]
    },
    "properties": {
    "name":"Barkam",
    "source":"CSWD",
    "wmo":"561720"
    }
  },
  {
    "type": "Feature",
    "geometry": {
       "type": "Point",
       "coordinates":  [ 99.1,30,2589 ]
    },
    "properties": {
    "name":"BATANG",
    "source":"SWERA",
    "wmo":"562470"
    }
  },
  {
    "type": "Feature",
    "geometry": {
       "type": "Point",
       "coordinates":  [ 104.02,30.67,506.1 ]
    },
    "properties": {
    "name":"Chengdu",
    "source":"CSWD",
    "wmo":"562940"
    }
  },
  {
    "type": "Feature",
    "geometry": {
       "type": "Point",
       "coordinates":  [ 104.02,30.67,508 ]
    },
    "properties": {
    "name":"CHENGDU",
    "source":"SWERA",
    "wmo":"562940"
    }
  },
  {
    "type": "Feature",
    "geometry": {
       "type": "Point",
       "coordinates":  [ 100,31.62,3393.5 ]
    },
    "properties": {
    "name":"Garze",
    "source":"CSWD",
    "wmo":"561460"
    }
  },
  {
    "type": "Feature",
    "geometry": {
       "type": "Point",
       "coordinates":  [ 100,31.62,3394 ]
    },
    "properties": {
    "name":"Garze",
    "source":"SWERA",
    "wmo":"561460"
    }
  },
  {
    "type": "Feature",
    "geometry": {
       "type": "Point",
       "coordinates":  [ 102.25,26.65,1787.3 ]
    },
    "properties": {
    "name":"Huili",
    "source":"CSWD",
    "wmo":"566710"
    }
  },
  {
    "type": "Feature",
    "geometry": {
       "type": "Point",
       "coordinates":  [ 102.25,26.65,1788 ]
    },
    "properties": {
    "name":"HUILI",
    "source":"SWERA",
    "wmo":"566710"
    }
  },
  {
    "type": "Feature",
    "geometry": {
       "type": "Point",
       "coordinates":  [ 101.5,29,2987.3 ]
    },
    "properties": {
    "name":"Jiulong",
    "source":"CSWD",
    "wmo":"564620"
    }
  },
  {
    "type": "Feature",
    "geometry": {
       "type": "Point",
       "coordinates":  [ 100.27,30,3948.9 ]
    },
    "properties": {
    "name":"Litang",
    "source":"CSWD",
    "wmo":"562570"
    }
  },
  {
    "type": "Feature",
    "geometry": {
       "type": "Point",
       "coordinates":  [ 105.43,28.88,334.8 ]
    },
    "properties": {
    "name":"Luzhou",
    "source":"CSWD",
    "wmo":"576020"
    }
  },
  {
    "type": "Feature",
    "geometry": {
       "type": "Point",
       "coordinates":  [ 104.73,31.45,522.7 ]
    },
    "properties": {
    "name":"Mianyang",
    "source":"CSWD",
    "wmo":"561960"
    }
  },
  {
    "type": "Feature",
    "geometry": {
       "type": "Point",
       "coordinates":  [ 106.1,30.78,309.7 ]
    },
    "properties": {
    "name":"Nanchong",
    "source":"CSWD",
    "wmo":"574110"
    }
  },
  {
    "type": "Feature",
    "geometry": {
       "type": "Point",
       "coordinates":  [ 103.57,32.65,2850.7 ]
    },
    "properties": {
    "name":"Songpan",
    "source":"CSWD",
    "wmo":"561820"
    }
  },
  {
    "type": "Feature",
    "geometry": {
       "type": "Point",
       "coordinates":  [ 108.03,32.07,674 ]
    },
    "properties": {
    "name":"Wanyuan",
    "source":"CSWD",
    "wmo":"572370"
    }
  },
  {
    "type": "Feature",
    "geometry": {
       "type": "Point",
       "coordinates":  [ 102.27,27.9,1590.9 ]
    },
    "properties": {
    "name":"Xichang",
    "source":"CSWD",
    "wmo":"565710"
    }
  },
  {
    "type": "Feature",
    "geometry": {
       "type": "Point",
       "coordinates":  [ 104.6,28.8,340.8 ]
    },
    "properties": {
    "name":"Yibin",
    "source":"CSWD",
    "wmo":"564920"
    }
  },
  {
    "type": "Feature",
    "geometry": {
       "type": "Point",
       "coordinates":  [ 117.07,39.08,2.5 ]
    },
    "properties": {
    "name":"Tianjin",
    "source":"CSWD",
    "wmo":"545270"
    }
  },
  {
    "type": "Feature",
    "geometry": {
       "type": "Point",
       "coordinates":  [ 91.13,29.67,3648.9 ]
    },
    "properties": {
    "name":"Lhasa",
    "source":"CSWD",
    "wmo":"555910"
    }
  },
  {
    "type": "Feature",
    "geometry": {
       "type": "Point",
       "coordinates":  [ 91.13,29.67,3650 ]
    },
    "properties": {
    "name":"LHASA",
    "source":"SWERA",
    "wmo":"555910"
    }
  },
  {
    "type": "Feature",
    "geometry": {
       "type": "Point",
       "coordinates":  [ 94.33,29.67,2991.8 ]
    },
    "properties": {
    "name":"Nyingchi",
    "source":"CSWD",
    "wmo":"563120"
    }
  },
  {
    "type": "Feature",
    "geometry": {
       "type": "Point",
       "coordinates":  [ 94.47,29.57,3001 ]
    },
    "properties": {
    "name":"NYINGCHI",
    "source":"SWERA",
    "wmo":"563120"
    }
  },
  {
    "type": "Feature",
    "geometry": {
       "type": "Point",
       "coordinates":  [ 89.08,27.73,4301 ]
    },
    "properties": {
    "name":"PAGRI",
    "source":"SWERA",
    "wmo":"557730"
    }
  },
  {
    "type": "Feature",
    "geometry": {
       "type": "Point",
       "coordinates":  [ 97.17,31.15,3306 ]
    },
    "properties": {
    "name":"Qamdo",
    "source":"CSWD",
    "wmo":"561370"
    }
  },
  {
    "type": "Feature",
    "geometry": {
       "type": "Point",
       "coordinates":  [ 87.53,43.83,786 ]
    },
    "properties": {
    "name":"URUMQI",
    "source":"IWEC Data",
    "wmo":"514630"
    }
  },
  {
    "type": "Feature",
    "geometry": {
       "type": "Point",
       "coordinates":  [ 88.08,47.73,735.3 ]
    },
    "properties": {
    "name":"Altay",
    "source":"CSWD",
    "wmo":"510760"
    }
  },
  {
    "type": "Feature",
    "geometry": {
       "type": "Point",
       "coordinates":  [ 88.08,47.73,737 ]
    },
    "properties": {
    "name":"ALTAY",
    "source":"SWERA",
    "wmo":"510760"
    }
  },
  {
    "type": "Feature",
    "geometry": {
       "type": "Point",
       "coordinates":  [ 78.57,39.8,1116.5 ]
    },
    "properties": {
    "name":"Bachu",
    "source":"CSWD",
    "wmo":"517160"
    }
  },
  {
    "type": "Feature",
    "geometry": {
       "type": "Point",
       "coordinates":  [ 89.52,46.98,807.5 ]
    },
    "properties": {
    "name":"Fuyun",
    "source":"CSWD",
    "wmo":"510870"
    }
  },
  {
    "type": "Feature",
    "geometry": {
       "type": "Point",
       "coordinates":  [ 93.52,42.82,737.2 ]
    },
    "properties": {
    "name":"Hami",
    "source":"CSWD",
    "wmo":"522030"
    }
  },
  {
    "type": "Feature",
    "geometry": {
       "type": "Point",
       "coordinates":  [ 85.72,46.78,1291.6 ]
    },
    "properties": {
    "name":"Hoboksar",
    "source":"CSWD",
    "wmo":"511560"
    }
  },
  {
    "type": "Feature",
    "geometry": {
       "type": "Point",
       "coordinates":  [ 79.93,37.13,1375 ]
    },
    "properties": {
    "name":"Hotan",
    "source":"CSWD",
    "wmo":"518280"
    }
  },
  {
    "type": "Feature",
    "geometry": {
       "type": "Point",
       "coordinates":  [ 82.9,44.62,320.1 ]
    },
    "properties": {
    "name":"Jinghe",
    "source":"CSWD",
    "wmo":"513340"
    }
  },
  {
    "type": "Feature",
    "geometry": {
       "type": "Point",
       "coordinates":  [ 84.85,45.62,449.5 ]
    },
    "properties": {
    "name":"Karamay",
    "source":"CSWD",
    "wmo":"512430"
    }
  },
  {
    "type": "Feature",
    "geometry": {
       "type": "Point",
       "coordinates":  [ 75.98,39.47,1289.4 ]
    },
    "properties": {
    "name":"Kashi",
    "source":"CSWD",
    "wmo":"517090"
    }
  },
  {
    "type": "Feature",
    "geometry": {
       "type": "Point",
       "coordinates":  [ 83.07,41.72,1081.9 ]
    },
    "properties": {
    "name":"Kuqa",
    "source":"CSWD",
    "wmo":"516440"
    }
  },
  {
    "type": "Feature",
    "geometry": {
       "type": "Point",
       "coordinates":  [ 82.72,37.07,1409.5 ]
    },
    "properties": {
    "name":"Minfeng",
    "source":"CSWD",
    "wmo":"518390"
    }
  },
  {
    "type": "Feature",
    "geometry": {
       "type": "Point",
       "coordinates":  [ 88.17,39.03,887.7 ]
    },
    "properties": {
    "name":"Ruoqiang",
    "source":"CSWD",
    "wmo":"517770"
    }
  },
  {
    "type": "Feature",
    "geometry": {
       "type": "Point",
       "coordinates":  [ 77.27,38.43,1231.2 ]
    },
    "properties": {
    "name":"Shache",
    "source":"CSWD",
    "wmo":"518110"
    }
  },
  {
    "type": "Feature",
    "geometry": {
       "type": "Point",
       "coordinates":  [ 83,46.73,534.9 ]
    },
    "properties": {
    "name":"Tacheng",
    "source":"CSWD",
    "wmo":"511330"
    }
  },
  {
    "type": "Feature",
    "geometry": {
       "type": "Point",
       "coordinates":  [ 87.7,40.63,846 ]
    },
    "properties": {
    "name":"Tikanlik",
    "source":"CSWD",
    "wmo":"517650"
    }
  },
  {
    "type": "Feature",
    "geometry": {
       "type": "Point",
       "coordinates":  [ 89.2,42.93,34.5 ]
    },
    "properties": {
    "name":"Turpan",
    "source":"CSWD",
    "wmo":"515730"
    }
  },
  {
    "type": "Feature",
    "geometry": {
       "type": "Point",
       "coordinates":  [ 89.2,42.93,37 ]
    },
    "properties": {
    "name":"TURPAN",
    "source":"SWERA",
    "wmo":"515730"
    }
  },
  {
    "type": "Feature",
    "geometry": {
       "type": "Point",
       "coordinates":  [ 87.65,43.78,935 ]
    },
    "properties": {
    "name":"Urumqi",
    "source":"CSWD",
    "wmo":"514630"
    }
  },
  {
    "type": "Feature",
    "geometry": {
       "type": "Point",
       "coordinates":  [ 81.33,43.95,662.5 ]
    },
    "properties": {
    "name":"Yining",
    "source":"CSWD",
    "wmo":"514310"
    }
  },
  {
    "type": "Feature",
    "geometry": {
       "type": "Point",
       "coordinates":  [ 101.55,25.03,1824.1 ]
    },
    "properties": {
    "name":"Chuxiong",
    "source":"CSWD",
    "wmo":"567680"
    }
  },
  {
    "type": "Feature",
    "geometry": {
       "type": "Point",
       "coordinates":  [ 98.92,28.48,3319 ]
    },
    "properties": {
    "name":"Deqen",
    "source":"CSWD",
    "wmo":"564440"
    }
  },
  {
    "type": "Feature",
    "geometry": {
       "type": "Point",
       "coordinates":  [ 102.68,25.02,1892.4 ]
    },
    "properties": {
    "name":"Kunming",
    "source":"CSWD",
    "wmo":"567780"
    }
  },
  {
    "type": "Feature",
    "geometry": {
       "type": "Point",
       "coordinates":  [ 102.68,25.02,1892 ]
    },
    "properties": {
    "name":"KUNMING",
    "source":"IWEC Data",
    "wmo":"567780"
    }
  },
  {
    "type": "Feature",
    "geometry": {
       "type": "Point",
       "coordinates":  [ 102.68,25.02,1892 ]
    },
    "properties": {
    "name":"KUNMING/WUJIABA",
    "source":"SWERA",
    "wmo":"567780"
    }
  },
  {
    "type": "Feature",
    "geometry": {
       "type": "Point",
       "coordinates":  [ 99.93,22.57,1054.8 ]
    },
    "properties": {
    "name":"Lancang",
    "source":"CSWD",
    "wmo":"569540"
    }
  },
  {
    "type": "Feature",
    "geometry": {
       "type": "Point",
       "coordinates":  [ 100.22,26.87,2392.4 ]
    },
    "properties": {
    "name":"Lijiang",
    "source":"CSWD",
    "wmo":"566510"
    }
  },
  {
    "type": "Feature",
    "geometry": {
       "type": "Point",
       "coordinates":  [ 100.08,23.88,1502.4 ]
    },
    "properties": {
    "name":"Lincang",
    "source":"CSWD",
    "wmo":"569510"
    }
  },
  {
    "type": "Feature",
    "geometry": {
       "type": "Point",
       "coordinates":  [ 101.57,21.48,631.9 ]
    },
    "properties": {
    "name":"Mengla",
    "source":"CSWD",
    "wmo":"569690"
    }
  },
  {
    "type": "Feature",
    "geometry": {
       "type": "Point",
       "coordinates":  [ 103.38,23.38,1300.7 ]
    },
    "properties": {
    "name":"Mengzi",
    "source":"CSWD",
    "wmo":"569850"
    }
  },
  {
    "type": "Feature",
    "geometry": {
       "type": "Point",
       "coordinates":  [ 100.97,22.78,1302.1 ]
    },
    "properties": {
    "name":"Simao",
    "source":"CSWD",
    "wmo":"569640"
    }
  },
  {
    "type": "Feature",
    "geometry": {
       "type": "Point",
       "coordinates":  [ 98.5,25.02,1654.6 ]
    },
    "properties": {
    "name":"Tengchong",
    "source":"CSWD",
    "wmo":"567390"
    }
  },
  {
    "type": "Feature",
    "geometry": {
       "type": "Point",
       "coordinates":  [ 101.98,23.6,400.9 ]
    },
    "properties": {
    "name":"Yuanjiang",
    "source":"CSWD",
    "wmo":"569660"
    }
  },
  {
    "type": "Feature",
    "geometry": {
       "type": "Point",
       "coordinates":  [ 122.1,30.03,35.7 ]
    },
    "properties": {
    "name":"Dinghai",
    "source":"CSWD",
    "wmo":"584770"
    }
  },
  {
    "type": "Feature",
    "geometry": {
       "type": "Point",
       "coordinates":  [ 120.17,30.23,41.7 ]
    },
    "properties": {
    "name":"Hangzhou",
    "source":"CSWD",
    "wmo":"584570"
    }
  },
  {
    "type": "Feature",
    "geometry": {
       "type": "Point",
       "coordinates":  [ 120.17,30.23,43 ]
    },
    "properties": {
    "name":"HANGZHOU/JIANQIAO",
    "source":"SWERA",
    "wmo":"584570"
    }
  },
  {
    "type": "Feature",
    "geometry": {
       "type": "Point",
       "coordinates":  [ 118.9,29,82.4 ]
    },
    "properties": {
    "name":"Quxian",
    "source":"CSWD",
    "wmo":"586330"
    }
  },
  {
    "type": "Feature",
    "geometry": {
       "type": "Point",
       "coordinates":  [ 120.65,28.03,28.3 ]
    },
    "properties": {
    "name":"Wenzhou",
    "source":"CSWD",
    "wmo":"586590"
    }
  },
  {
    "type": "Feature",
    "geometry": {
       "type": "Point",
       "coordinates":  [ -74.13,4.7,2548 ]
    },
    "properties": {
    "name":"BOGOTA",
    "source":"IWEC Data",
    "wmo":"802220"
    }
  },
  {
    "type": "Feature",
    "geometry": {
       "type": "Point",
       "coordinates":  [ -75.22,19.9,17 ]
    },
    "properties": {
    "name":"GUANTANAMO_BAY_NAS",
    "source":"SWERA",
    "wmo":"783670"
    }
  },
  {
    "type": "Feature",
    "geometry": {
       "type": "Point",
       "coordinates":  [ -75.15,19.9,17 ]
    },
    "properties": {
    "name":"Guantanamo Bay",
    "source":"TMY--11706",
    "wmo":"783670"
    }
  },